[
  {"id":1,"iata":"GRU","icao":"SBGR","name":"Guarulhos Intl","city":"São Paulo","country":"Brazil","lat":-23.4356,"lon":-46.4731,"region":"South America","hasHelipad":true},
  {"id":2,"iata":"GIG","icao":"SBGL","name":"Galeão Intl","city":"Rio de Janeiro","country":"Brazil","lat":-22.8099,"lon":-43.2505,"region":"South America","hasHelipad":true},
  {"id":3,"iata":"BSB","icao":"SBBR","name":"Brasília Intl","city":"Brasília","country":"Brazil","lat":-15.8691,"lon":-47.9208,"region":"South America","hasHelipad":true},
  {"id":4,"iata":"CGH","icao":"SBSP","name":"Congonhas","city":"São Paulo","country":"Brazil","lat":-23.6267,"lon":-46.6556,"region":"South America","hasHelipad":true},
  {"id":5,"iata":"SDU","icao":"SBRJ","name":"Santos Dumont","city":"Rio de Janeiro","country":"Brazil","lat":-22.9105,"lon":-43.1631,"region":"South America","hasHelipad":true},
  {"id":6,"iata":"VCP","icao":"SBKP","name":"Viracopos Intl","city":"Campinas","country":"Brazil","lat":-23.0075,"lon":-47.1345,"region":"South America","hasHelipad":false},
  {"id":7,"iata":"CNF","icao":"SBCF","name":"Tancredo Neves Intl","city":"Belo Horizonte","country":"Brazil","lat":-19.6244,"lon":-43.9719,"region":"South America","hasHelipad":false},
  {"id":8,"iata":"POA","icao":"SBPA","name":"Salgado Filho Intl","city":"Porto Alegre","country":"Brazil","lat":-29.9944,"lon":-51.1713,"region":"South America","hasHelipad":false},
  {"id":9,"iata":"CWB","icao":"SBCT","name":"Afonso Pena Intl","city":"Curitiba","country":"Brazil","lat":-25.5285,"lon":-49.1758,"region":"South America","hasHelipad":false},
  {"id":10,"iata":"SSA","icao":"SBSV","name":"Luís Eduardo Magalhães Intl","city":"Salvador","country":"Brazil","lat":-12.9086,"lon":-38.3225,"region":"South America","hasHelipad":false},
  {"id":11,"iata":"FOR","icao":"SBFZ","name":"Pinto Martins Intl","city":"Fortaleza","country":"Brazil","lat":-3.7762,"lon":-38.5326,"region":"South America","hasHelipad":false},
  {"id":12,"iata":"REC","icao":"SBRF","name":"Guararapes Intl","city":"Recife","country":"Brazil","lat":-8.1265,"lon":-34.9227,"region":"South America","hasHelipad":false},
  {"id":13,"iata":"BEL","icao":"SBBE","name":"Val de Cans Intl","city":"Belém","country":"Brazil","lat":-1.3793,"lon":-48.4763,"region":"South America","hasHelipad":false},
  {"id":14,"iata":"MAO","icao":"SBEG","name":"Eduardo Gomes Intl","city":"Manaus","country":"Brazil","lat":-3.0386,"lon":-60.0497,"region":"South America","hasHelipad":false},
  {"id":15,"iata":"FLN","icao":"SBFL","name":"Hercílio Luz Intl","city":"Florianópolis","country":"Brazil","lat":-27.6703,"lon":-48.5525,"region":"South America","hasHelipad":false},
  {"id":16,"iata":"NAT","icao":"SBSG","name":"Governador Aluízio Alves Intl","city":"Natal","country":"Brazil","lat":-5.9141,"lon":-35.2477,"region":"South America","hasHelipad":false},
  {"id":17,"iata":"MCZ","icao":"SBMO","name":"Zumbi dos Palmares Intl","city":"Maceió","country":"Brazil","lat":-9.5109,"lon":-35.7916,"region":"South America","hasHelipad":false},
  {"id":18,"iata":"THE","icao":"SBTE","name":"Senador Petrônio Portella","city":"Teresina","country":"Brazil","lat":-5.0599,"lon":-42.8236,"region":"South America","hasHelipad":false},
  {"id":19,"iata":"JPA","icao":"SBJP","name":"Presidente Castro Pinto Intl","city":"João Pessoa","country":"Brazil","lat":-7.1459,"lon":-34.9486,"region":"South America","hasHelipad":false},
  {"id":20,"iata":"AJU","icao":"SBAR","name":"Santa Maria","city":"Aracaju","country":"Brazil","lat":-10.9840,"lon":-37.0703,"region":"South America","hasHelipad":false},
  {"id":21,"iata":"VDC","icao":"SBVC","name":"Vitória da Conquista","city":"Vitória da Conquista","country":"Brazil","lat":-14.8628,"lon":-40.8631,"region":"South America","hasHelipad":false},
  {"id":22,"iata":"IOS","icao":"SBIL","name":"Ilhéus Jorge Amado","city":"Ilhéus","country":"Brazil","lat":-14.8160,"lon":-39.0332,"region":"South America","hasHelipad":false},
  {"id":23,"iata":"PMW","icao":"SBPJ","name":"Palmas","city":"Palmas","country":"Brazil","lat":-10.2913,"lon":-48.3570,"region":"South America","hasHelipad":false},
  {"id":24,"iata":"GYN","icao":"SBGO","name":"Santa Genoveva","city":"Goiânia","country":"Brazil","lat":-16.6320,"lon":-49.2207,"region":"South America","hasHelipad":false},
  {"id":25,"iata":"CGB","icao":"SBCY","name":"Marechal Rondon Intl","city":"Cuiabá","country":"Brazil","lat":-15.6530,"lon":-56.1170,"region":"South America","hasHelipad":false},
  {"id":26,"iata":"SLZ","icao":"SBSL","name":"Marechal Cunha Machado Intl","city":"São Luís","country":"Brazil","lat":-2.5856,"lon":-44.2341,"region":"South America","hasHelipad":false},
  {"id":27,"iata":"CAM","icao":"SNCA","name":"Camocim","city":"Camocim","country":"Brazil","lat":-2.8956,"lon":-40.8555,"region":"South America","hasHelipad":false},
  {"id":28,"iata":"STM","icao":"SBSN","name":"Santarém Maestro Wilson Fonseca","city":"Santarém","country":"Brazil","lat":-2.4247,"lon":-54.7858,"region":"South America","hasHelipad":false},
  {"id":29,"iata":"MCP","icao":"SBMQ","name":"Macapá Intl","city":"Macapá","country":"Brazil","lat":-0.0507,"lon":-51.0722,"region":"South America","hasHelipad":false},
  {"id":30,"iata":"RBR","icao":"SBRB","name":"Plácido de Castro Intl","city":"Rio Branco","country":"Brazil","lat":-9.8699,"lon":-67.8982,"region":"South America","hasHelipad":false},
  {"id":31,"iata":"JFK","icao":"KJFK","name":"John F. Kennedy Intl","city":"New York","country":"USA","lat":40.6413,"lon":-73.7781,"region":"North America","hasHelipad":true},
  {"id":32,"iata":"LAX","icao":"KLAX","name":"Los Angeles Intl","city":"Los Angeles","country":"USA","lat":33.9425,"lon":-118.4081,"region":"North America","hasHelipad":true},
  {"id":33,"iata":"ORD","icao":"KORD","name":"O'Hare Intl","city":"Chicago","country":"USA","lat":41.9742,"lon":-87.9073,"region":"North America","hasHelipad":true},
  {"id":34,"iata":"ATL","icao":"KATL","name":"Hartsfield-Jackson Atlanta Intl","city":"Atlanta","country":"USA","lat":33.6407,"lon":-84.4277,"region":"North America","hasHelipad":true},
  {"id":35,"iata":"DFW","icao":"KDFW","name":"Dallas/Fort Worth Intl","city":"Dallas","country":"USA","lat":32.8998,"lon":-97.0403,"region":"North America","hasHelipad":true},
  {"id":36,"iata":"DEN","icao":"KDEN","name":"Denver Intl","city":"Denver","country":"USA","lat":39.8561,"lon":-104.6737,"region":"North America","hasHelipad":true},
  {"id":37,"iata":"SFO","icao":"KSFO","name":"San Francisco Intl","city":"San Francisco","country":"USA","lat":37.6213,"lon":-122.3790,"region":"North America","hasHelipad":true},
  {"id":38,"iata":"SEA","icao":"KSEA","name":"Seattle-Tacoma Intl","city":"Seattle","country":"USA","lat":47.4502,"lon":-122.3088,"region":"North America","hasHelipad":true},
  {"id":39,"iata":"LAS","icao":"KLAS","name":"Harry Reid Intl","city":"Las Vegas","country":"USA","lat":36.0840,"lon":-115.1537,"region":"North America","hasHelipad":false},
  {"id":40,"iata":"PHX","icao":"KPHX","name":"Phoenix Sky Harbor Intl","city":"Phoenix","country":"USA","lat":33.4373,"lon":-112.0078,"region":"North America","hasHelipad":false},
  {"id":41,"iata":"MIA","icao":"KMIA","name":"Miami Intl","city":"Miami","country":"USA","lat":25.7959,"lon":-80.2870,"region":"North America","hasHelipad":true},
  {"id":42,"iata":"MCO","icao":"KMCO","name":"Orlando Intl","city":"Orlando","country":"USA","lat":28.4312,"lon":-81.3081,"region":"North America","hasHelipad":false},
  {"id":43,"iata":"EWR","icao":"KEWR","name":"Newark Liberty Intl","city":"Newark","country":"USA","lat":40.6895,"lon":-74.1745,"region":"North America","hasHelipad":true},
  {"id":44,"iata":"CLT","icao":"KCLT","name":"Charlotte Douglas Intl","city":"Charlotte","country":"USA","lat":35.2141,"lon":-80.9431,"region":"North America","hasHelipad":false},
  {"id":45,"iata":"BOS","icao":"KBOS","name":"Logan Intl","city":"Boston","country":"USA","lat":42.3656,"lon":-71.0096,"region":"North America","hasHelipad":true},
  {"id":46,"iata":"MSP","icao":"KMSP","name":"Minneapolis-Saint Paul Intl","city":"Minneapolis","country":"USA","lat":44.8848,"lon":-93.2223,"region":"North America","hasHelipad":false},
  {"id":47,"iata":"DTW","icao":"KDTW","name":"Detroit Metro Wayne County","city":"Detroit","country":"USA","lat":42.2162,"lon":-83.3554,"region":"North America","hasHelipad":false},
  {"id":48,"iata":"PHL","icao":"KPHL","name":"Philadelphia Intl","city":"Philadelphia","country":"USA","lat":39.8721,"lon":-75.2411,"region":"North America","hasHelipad":false},
  {"id":49,"iata":"LGA","icao":"KLGA","name":"LaGuardia","city":"New York","country":"USA","lat":40.7769,"lon":-73.8740,"region":"North America","hasHelipad":true},
  {"id":50,"iata":"FLL","icao":"KFLL","name":"Fort Lauderdale-Hollywood Intl","city":"Fort Lauderdale","country":"USA","lat":26.0726,"lon":-80.1527,"region":"North America","hasHelipad":false},
  {"id":51,"iata":"BWI","icao":"KBWI","name":"Baltimore/Washington Intl","city":"Baltimore","country":"USA","lat":39.1754,"lon":-76.6683,"region":"North America","hasHelipad":false},
  {"id":52,"iata":"IAD","icao":"KIAD","name":"Washington Dulles Intl","city":"Washington","country":"USA","lat":38.9531,"lon":-77.4565,"region":"North America","hasHelipad":true},
  {"id":53,"iata":"MDW","icao":"KMDW","name":"Chicago Midway Intl","city":"Chicago","country":"USA","lat":41.7868,"lon":-87.7522,"region":"North America","hasHelipad":false},
  {"id":54,"iata":"SLC","icao":"KSLC","name":"Salt Lake City Intl","city":"Salt Lake City","country":"USA","lat":40.7884,"lon":-111.9778,"region":"North America","hasHelipad":false},
  {"id":55,"iata":"HNL","icao":"PHNL","name":"Daniel K. Inouye Intl","city":"Honolulu","country":"USA","lat":21.3187,"lon":-157.9224,"region":"North America","hasHelipad":true},
  {"id":56,"iata":"ANC","icao":"PANC","name":"Ted Stevens Anchorage Intl","city":"Anchorage","country":"USA","lat":61.1744,"lon":-149.9963,"region":"North America","hasHelipad":true},
  {"id":57,"iata":"PDX","icao":"KPDX","name":"Portland Intl","city":"Portland","country":"USA","lat":45.5898,"lon":-122.5951,"region":"North America","hasHelipad":false},
  {"id":58,"iata":"MSY","icao":"KMSY","name":"Louis Armstrong New Orleans Intl","city":"New Orleans","country":"USA","lat":29.9934,"lon":-90.2580,"region":"North America","hasHelipad":false},
  {"id":59,"iata":"RDU","icao":"KRDU","name":"Raleigh-Durham Intl","city":"Raleigh","country":"USA","lat":35.8776,"lon":-78.7875,"region":"North America","hasHelipad":false},
  {"id":60,"iata":"STL","icao":"KSTL","name":"Lambert-St. Louis Intl","city":"St. Louis","country":"USA","lat":38.7487,"lon":-90.3700,"region":"North America","hasHelipad":false},
  {"id":61,"iata":"CLE","icao":"KCLE","name":"Cleveland Hopkins Intl","city":"Cleveland","country":"USA","lat":41.4117,"lon":-81.8498,"region":"North America","hasHelipad":false},
  {"id":62,"iata":"SAN","icao":"KSAN","name":"San Diego Intl","city":"San Diego","country":"USA","lat":32.7338,"lon":-117.1933,"region":"North America","hasHelipad":false},
  {"id":63,"iata":"TPA","icao":"KTPA","name":"Tampa Intl","city":"Tampa","country":"USA","lat":27.9755,"lon":-82.5332,"region":"North America","hasHelipad":false},
  {"id":64,"iata":"BNA","icao":"KBNA","name":"Nashville Intl","city":"Nashville","country":"USA","lat":36.1245,"lon":-86.6782,"region":"North America","hasHelipad":false},
  {"id":65,"iata":"SJC","icao":"KSJC","name":"Norman Y. Mineta San Jose Intl","city":"San Jose","country":"USA","lat":37.3626,"lon":-121.9290,"region":"North America","hasHelipad":false},
  {"id":66,"iata":"OAK","icao":"KOAK","name":"Oakland Intl","city":"Oakland","country":"USA","lat":37.7213,"lon":-122.2208,"region":"North America","hasHelipad":false},
  {"id":67,"iata":"SMF","icao":"KSMF","name":"Sacramento Intl","city":"Sacramento","country":"USA","lat":38.6954,"lon":-121.5908,"region":"North America","hasHelipad":false},
  {"id":68,"iata":"AUS","icao":"KAUS","name":"Austin-Bergstrom Intl","city":"Austin","country":"USA","lat":30.1975,"lon":-97.6664,"region":"North America","hasHelipad":false},
  {"id":69,"iata":"IND","icao":"KIND","name":"Indianapolis Intl","city":"Indianapolis","country":"USA","lat":39.7173,"lon":-86.2944,"region":"North America","hasHelipad":false},
  {"id":70,"iata":"CMH","icao":"KCMH","name":"John Glenn Columbus Intl","city":"Columbus","country":"USA","lat":39.9980,"lon":-82.8919,"region":"North America","hasHelipad":false},
  {"id":71,"iata":"LHR","icao":"EGLL","name":"London Heathrow","city":"London","country":"United Kingdom","lat":51.4700,"lon":-0.4543,"region":"Europe","hasHelipad":true},
  {"id":72,"iata":"CDG","icao":"LFPG","name":"Charles de Gaulle Intl","city":"Paris","country":"France","lat":49.0097,"lon":2.5479,"region":"Europe","hasHelipad":true},
  {"id":73,"iata":"AMS","icao":"EHAM","name":"Amsterdam Schiphol","city":"Amsterdam","country":"Netherlands","lat":52.3086,"lon":4.7639,"region":"Europe","hasHelipad":true},
  {"id":74,"iata":"FRA","icao":"EDDF","name":"Frankfurt Main","city":"Frankfurt","country":"Germany","lat":50.0379,"lon":8.5622,"region":"Europe","hasHelipad":true},
  {"id":75,"iata":"MAD","icao":"LEMD","name":"Adolfo Suárez Madrid-Barajas","city":"Madrid","country":"Spain","lat":40.4719,"lon":-3.5626,"region":"Europe","hasHelipad":true},
  {"id":76,"iata":"BCN","icao":"LEBL","name":"Josep Tarradellas Barcelona-El Prat","city":"Barcelona","country":"Spain","lat":41.2971,"lon":2.0785,"region":"Europe","hasHelipad":true},
  {"id":77,"iata":"FCO","icao":"LIRF","name":"Leonardo da Vinci-Fiumicino","city":"Rome","country":"Italy","lat":41.8003,"lon":12.2389,"region":"Europe","hasHelipad":true},
  {"id":78,"iata":"MUC","icao":"EDDM","name":"Munich Intl","city":"Munich","country":"Germany","lat":48.3538,"lon":11.7861,"region":"Europe","hasHelipad":true},
  {"id":79,"iata":"ZRH","icao":"LSZH","name":"Zurich Airport","city":"Zurich","country":"Switzerland","lat":47.4647,"lon":8.5492,"region":"Europe","hasHelipad":true},
  {"id":80,"iata":"VIE","icao":"LOWW","name":"Vienna Intl","city":"Vienna","country":"Austria","lat":48.1103,"lon":16.5697,"region":"Europe","hasHelipad":true},
  {"id":81,"iata":"BRU","icao":"EBBR","name":"Brussels Airport","city":"Brussels","country":"Belgium","lat":50.9014,"lon":4.4844,"region":"Europe","hasHelipad":true},
  {"id":82,"iata":"CPH","icao":"EKCH","name":"Copenhagen Kastrup","city":"Copenhagen","country":"Denmark","lat":55.6179,"lon":12.6560,"region":"Europe","hasHelipad":true},
  {"id":83,"iata":"OSL","icao":"ENGM","name":"Oslo Gardermoen","city":"Oslo","country":"Norway","lat":60.1939,"lon":11.1004,"region":"Europe","hasHelipad":true},
  {"id":84,"iata":"ARN","icao":"ESSA","name":"Stockholm Arlanda","city":"Stockholm","country":"Sweden","lat":59.6519,"lon":17.9186,"region":"Europe","hasHelipad":true},
  {"id":85,"iata":"HEL","icao":"EFHK","name":"Helsinki Vantaa","city":"Helsinki","country":"Finland","lat":60.3172,"lon":24.9633,"region":"Europe","hasHelipad":true},
  {"id":86,"iata":"LIS","icao":"LPPT","name":"Lisbon Humberto Delgado","city":"Lisbon","country":"Portugal","lat":38.7756,"lon":-9.1354,"region":"Europe","hasHelipad":true},
  {"id":87,"iata":"DUB","icao":"EIDW","name":"Dublin Airport","city":"Dublin","country":"Ireland","lat":53.4213,"lon":-6.2700,"region":"Europe","hasHelipad":true},
  {"id":88,"iata":"MAN","icao":"EGCC","name":"Manchester Airport","city":"Manchester","country":"United Kingdom","lat":53.3537,"lon":-2.2750,"region":"Europe","hasHelipad":false},
  {"id":89,"iata":"LGW","icao":"EGKK","name":"London Gatwick","city":"London","country":"United Kingdom","lat":51.1481,"lon":-0.1903,"region":"Europe","hasHelipad":true},
  {"id":90,"iata":"STN","icao":"EGSS","name":"London Stansted","city":"London","country":"United Kingdom","lat":51.8850,"lon":0.2350,"region":"Europe","hasHelipad":false},
  {"id":91,"iata":"ORY","icao":"LFPO","name":"Paris Orly","city":"Paris","country":"France","lat":48.7233,"lon":2.3794,"region":"Europe","hasHelipad":false},
  {"id":92,"iata":"BER","icao":"EDDB","name":"Berlin Brandenburg","city":"Berlin","country":"Germany","lat":52.3667,"lon":13.5033,"region":"Europe","hasHelipad":true},
  {"id":93,"iata":"HAM","icao":"EDDH","name":"Hamburg Airport","city":"Hamburg","country":"Germany","lat":53.6304,"lon":9.9882,"region":"Europe","hasHelipad":false},
  {"id":94,"iata":"DUS","icao":"EDDL","name":"Düsseldorf Airport","city":"Düsseldorf","country":"Germany","lat":51.2895,"lon":6.7668,"region":"Europe","hasHelipad":false},
  {"id":95,"iata":"TXL","icao":"EDDT","name":"Berlin Tegel","city":"Berlin","country":"Germany","lat":52.5597,"lon":13.2877,"region":"Europe","hasHelipad":false},
  {"id":96,"iata":"MXP","icao":"LIMC","name":"Milan Malpensa","city":"Milan","country":"Italy","lat":45.6306,"lon":8.7281,"region":"Europe","hasHelipad":true},
  {"id":97,"iata":"LIN","icao":"LIML","name":"Milan Linate","city":"Milan","country":"Italy","lat":45.4495,"lon":9.2767,"region":"Europe","hasHelipad":false},
  {"id":98,"iata":"GVA","icao":"LSGG","name":"Geneva Airport","city":"Geneva","country":"Switzerland","lat":46.2381,"lon":6.1089,"region":"Europe","hasHelipad":false},
  {"id":99,"iata":"NAP","icao":"LIRN","name":"Naples Capodichino","city":"Naples","country":"Italy","lat":40.8860,"lon":14.2908,"region":"Europe","hasHelipad":false},
  {"id":100,"iata":"VCE","icao":"LIPZ","name":"Venice Marco Polo","city":"Venice","country":"Italy","lat":45.5053,"lon":12.3519,"region":"Europe","hasHelipad":false},
  {"id":101,"iata":"ATH","icao":"LGAV","name":"Athens Eleftherios Venizelos","city":"Athens","country":"Greece","lat":37.9364,"lon":23.9445,"region":"Europe","hasHelipad":true},
  {"id":102,"iata":"IST","icao":"LTFM","name":"Istanbul Airport","city":"Istanbul","country":"Turkey","lat":41.2753,"lon":28.7519,"region":"Europe","hasHelipad":true},
  {"id":103,"iata":"SAW","icao":"LTFJ","name":"Istanbul Sabiha Gökçen","city":"Istanbul","country":"Turkey","lat":40.8983,"lon":29.3092,"region":"Europe","hasHelipad":false},
  {"id":104,"iata":"WAW","icao":"EPWA","name":"Warsaw Chopin","city":"Warsaw","country":"Poland","lat":52.1657,"lon":20.9671,"region":"Europe","hasHelipad":true},
  {"id":105,"iata":"PRG","icao":"LKPR","name":"Prague Václav Havel","city":"Prague","country":"Czech Republic","lat":50.1008,"lon":14.2600,"region":"Europe","hasHelipad":true},
  {"id":106,"iata":"BUD","icao":"LHBP","name":"Budapest Ferenc Liszt","city":"Budapest","country":"Hungary","lat":47.4298,"lon":19.2611,"region":"Europe","hasHelipad":true},
  {"id":107,"iata":"BEG","icao":"LYBE","name":"Belgrade Nikola Tesla","city":"Belgrade","country":"Serbia","lat":44.8184,"lon":20.3091,"region":"Europe","hasHelipad":false},
  {"id":108,"iata":"SVO","icao":"UUEE","name":"Moscow Sheremetyevo","city":"Moscow","country":"Russia","lat":55.9726,"lon":37.4146,"region":"Europe","hasHelipad":true},
  {"id":109,"iata":"DME","icao":"UUDD","name":"Moscow Domodedovo","city":"Moscow","country":"Russia","lat":55.4088,"lon":37.9063,"region":"Europe","hasHelipad":true},
  {"id":110,"iata":"LED","icao":"ULLI","name":"St. Petersburg Pulkovo","city":"St. Petersburg","country":"Russia","lat":59.8003,"lon":30.2625,"region":"Europe","hasHelipad":true},
  {"id":111,"iata":"KBP","icao":"UKBB","name":"Kyiv Boryspil","city":"Kyiv","country":"Ukraine","lat":50.3450,"lon":30.8947,"region":"Europe","hasHelipad":true},
  {"id":112,"iata":"OTP","icao":"LROP","name":"Bucharest Henri Coandă","city":"Bucharest","country":"Romania","lat":44.5711,"lon":26.0850,"region":"Europe","hasHelipad":false},
  {"id":113,"iata":"SOF","icao":"LBSF","name":"Sofia Airport","city":"Sofia","country":"Bulgaria","lat":42.6952,"lon":23.4114,"region":"Europe","hasHelipad":false},
  {"id":114,"iata":"LJU","icao":"LJLJ","name":"Ljubljana Jože Pučnik","city":"Ljubljana","country":"Slovenia","lat":46.2237,"lon":14.4576,"region":"Europe","hasHelipad":false},
  {"id":115,"iata":"ZAG","icao":"LDZA","name":"Zagreb Airport","city":"Zagreb","country":"Croatia","lat":45.7429,"lon":16.0688,"region":"Europe","hasHelipad":false},
  {"id":116,"iata":"SKG","icao":"LGTS","name":"Thessaloniki Macedonia","city":"Thessaloniki","country":"Greece","lat":40.5197,"lon":22.9709,"region":"Europe","hasHelipad":false},
  {"id":117,"iata":"HER","icao":"LGIR","name":"Heraklion Nikos Kazantzakis","city":"Heraklion","country":"Greece","lat":35.3397,"lon":25.1803,"region":"Europe","hasHelipad":false},
  {"id":118,"iata":"RHO","icao":"LGRP","name":"Rhodes Diagoras","city":"Rhodes","country":"Greece","lat":36.4054,"lon":28.0862,"region":"Europe","hasHelipad":false},
  {"id":119,"iata":"PMI","icao":"LEPA","name":"Palma de Mallorca","city":"Palma","country":"Spain","lat":39.5517,"lon":2.7388,"region":"Europe","hasHelipad":false},
  {"id":120,"iata":"IBZ","icao":"LEIB","name":"Ibiza Airport","city":"Ibiza","country":"Spain","lat":38.8729,"lon":1.3731,"region":"Europe","hasHelipad":false},
  {"id":121,"iata":"NRT","icao":"RJAA","name":"Tokyo Narita Intl","city":"Tokyo","country":"Japan","lat":35.7647,"lon":140.3864,"region":"Asia","hasHelipad":true},
  {"id":122,"iata":"HND","icao":"RJTT","name":"Tokyo Haneda","city":"Tokyo","country":"Japan","lat":35.5494,"lon":139.7798,"region":"Asia","hasHelipad":true},
  {"id":123,"iata":"KIX","icao":"RJBB","name":"Kansai Intl","city":"Osaka","country":"Japan","lat":34.4272,"lon":135.2440,"region":"Asia","hasHelipad":true},
  {"id":124,"iata":"ITM","icao":"RJOO","name":"Osaka Itami","city":"Osaka","country":"Japan","lat":34.7854,"lon":135.4387,"region":"Asia","hasHelipad":false},
  {"id":125,"iata":"ICN","icao":"RKSI","name":"Incheon Intl","city":"Seoul","country":"South Korea","lat":37.4691,"lon":126.4510,"region":"Asia","hasHelipad":true},
  {"id":126,"iata":"GMP","icao":"RKSS","name":"Gimpo Intl","city":"Seoul","country":"South Korea","lat":37.5586,"lon":126.7914,"region":"Asia","hasHelipad":false},
  {"id":127,"iata":"PEK","icao":"ZBAA","name":"Beijing Capital Intl","city":"Beijing","country":"China","lat":40.0799,"lon":116.6031,"region":"Asia","hasHelipad":true},
  {"id":128,"iata":"PVG","icao":"ZSPD","name":"Shanghai Pudong Intl","city":"Shanghai","country":"China","lat":31.1443,"lon":121.8083,"region":"Asia","hasHelipad":true},
  {"id":129,"iata":"SHA","icao":"ZSSS","name":"Shanghai Hongqiao Intl","city":"Shanghai","country":"China","lat":31.1979,"lon":121.3362,"region":"Asia","hasHelipad":false},
  {"id":130,"iata":"HKG","icao":"VHHH","name":"Hong Kong Intl","city":"Hong Kong","country":"China","lat":22.3080,"lon":113.9185,"region":"Asia","hasHelipad":true},
  {"id":131,"iata":"SIN","icao":"WSSS","name":"Singapore Changi","city":"Singapore","country":"Singapore","lat":1.3644,"lon":103.9915,"region":"Asia","hasHelipad":true},
  {"id":132,"iata":"BKK","icao":"VTBS","name":"Suvarnabhumi Intl","city":"Bangkok","country":"Thailand","lat":13.6900,"lon":100.7501,"region":"Asia","hasHelipad":true},
  {"id":133,"iata":"DMK","icao":"VTBD","name":"Don Mueang Intl","city":"Bangkok","country":"Thailand","lat":13.9126,"lon":100.6067,"region":"Asia","hasHelipad":false},
  {"id":134,"iata":"KUL","icao":"WMKK","name":"Kuala Lumpur Intl","city":"Kuala Lumpur","country":"Malaysia","lat":2.7456,"lon":101.7099,"region":"Asia","hasHelipad":true},
  {"id":135,"iata":"CGK","icao":"WIII","name":"Soekarno-Hatta Intl","city":"Jakarta","country":"Indonesia","lat":-6.1256,"lon":106.6559,"region":"Asia","hasHelipad":true},
  {"id":136,"iata":"MNL","icao":"RPLL","name":"Ninoy Aquino Intl","city":"Manila","country":"Philippines","lat":14.5086,"lon":121.0197,"region":"Asia","hasHelipad":true},
  {"id":137,"iata":"HAN","icao":"VVNB","name":"Noi Bai Intl","city":"Hanoi","country":"Vietnam","lat":21.2212,"lon":105.8074,"region":"Asia","hasHelipad":true},
  {"id":138,"iata":"SGN","icao":"VVTS","name":"Tan Son Nhat Intl","city":"Ho Chi Minh City","country":"Vietnam","lat":10.8188,"lon":106.6520,"region":"Asia","hasHelipad":true},
  {"id":139,"iata":"CXR","icao":"VVCR","name":"Cam Ranh Intl","city":"Nha Trang","country":"Vietnam","lat":11.9983,"lon":109.2194,"region":"Asia","hasHelipad":false},
  {"id":140,"iata":"RGN","icao":"VYYY","name":"Yangon Intl","city":"Yangon","country":"Myanmar","lat":16.9073,"lon":96.1332,"region":"Asia","hasHelipad":false},
  {"id":141,"iata":"CMB","icao":"VCBI","name":"Bandaranaike Intl","city":"Colombo","country":"Sri Lanka","lat":7.1808,"lon":79.8841,"region":"Asia","hasHelipad":true},
  {"id":142,"iata":"DEL","icao":"VIDP","name":"Indira Gandhi Intl","city":"New Delhi","country":"India","lat":28.5665,"lon":77.1031,"region":"Asia","hasHelipad":true},
  {"id":143,"iata":"BOM","icao":"VABB","name":"Chhatrapati Shivaji Maharaj Intl","city":"Mumbai","country":"India","lat":19.0896,"lon":72.8656,"region":"Asia","hasHelipad":true},
  {"id":144,"iata":"MAA","icao":"VOMM","name":"Chennai Intl","city":"Chennai","country":"India","lat":12.9941,"lon":80.1709,"region":"Asia","hasHelipad":true},
  {"id":145,"iata":"BLR","icao":"VOBL","name":"Kempegowda Intl","city":"Bengaluru","country":"India","lat":13.1979,"lon":77.7063,"region":"Asia","hasHelipad":true},
  {"id":146,"iata":"HYD","icao":"VOHS","name":"Rajiv Gandhi Intl","city":"Hyderabad","country":"India","lat":17.2313,"lon":78.4298,"region":"Asia","hasHelipad":false},
  {"id":147,"iata":"CCU","icao":"VECC","name":"Netaji Subhas Chandra Bose Intl","city":"Kolkata","country":"India","lat":22.6552,"lon":88.4467,"region":"Asia","hasHelipad":true},
  {"id":148,"iata":"AMD","icao":"VAAH","name":"Sardar Vallabhbhai Patel Intl","city":"Ahmedabad","country":"India","lat":23.0772,"lon":72.6347,"region":"Asia","hasHelipad":false},
  {"id":149,"iata":"COK","icao":"VOCI","name":"Cochin Intl","city":"Kochi","country":"India","lat":10.1520,"lon":76.3919,"region":"Asia","hasHelipad":false},
  {"id":150,"iata":"TRV","icao":"VOTV","name":"Trivandrum Intl","city":"Thiruvananthapuram","country":"India","lat":8.4821,"lon":76.9201,"region":"Asia","hasHelipad":false},
  {"id":151,"iata":"DXB","icao":"OMDB","name":"Dubai Intl","city":"Dubai","country":"UAE","lat":25.2532,"lon":55.3657,"region":"Middle East","hasHelipad":true},
  {"id":152,"iata":"AUH","icao":"OMAA","name":"Abu Dhabi Intl","city":"Abu Dhabi","country":"UAE","lat":24.4330,"lon":54.6511,"region":"Middle East","hasHelipad":true},
  {"id":153,"iata":"SHJ","icao":"OMSJ","name":"Sharjah Intl","city":"Sharjah","country":"UAE","lat":25.3286,"lon":55.5172,"region":"Middle East","hasHelipad":false},
  {"id":154,"iata":"DOH","icao":"OTHH","name":"Hamad Intl","city":"Doha","country":"Qatar","lat":25.2609,"lon":51.6138,"region":"Middle East","hasHelipad":true},
  {"id":155,"iata":"KWI","icao":"OKBK","name":"Kuwait Intl","city":"Kuwait City","country":"Kuwait","lat":29.2266,"lon":47.9689,"region":"Middle East","hasHelipad":true},
  {"id":156,"iata":"BAH","icao":"OBBI","name":"Bahrain Intl","city":"Manama","country":"Bahrain","lat":26.2708,"lon":50.6336,"region":"Middle East","hasHelipad":true},
  {"id":157,"iata":"MCT","icao":"OOMS","name":"Muscat Intl","city":"Muscat","country":"Oman","lat":23.5933,"lon":58.2844,"region":"Middle East","hasHelipad":true},
  {"id":158,"iata":"AMM","icao":"OJAI","name":"Queen Alia Intl","city":"Amman","country":"Jordan","lat":31.7226,"lon":35.9932,"region":"Middle East","hasHelipad":true},
  {"id":159,"iata":"BEY","icao":"OLBA","name":"Rafic Hariri Intl","city":"Beirut","country":"Lebanon","lat":33.8209,"lon":35.4884,"region":"Middle East","hasHelipad":true},
  {"id":160,"iata":"TLV","icao":"LLBG","name":"Ben Gurion Intl","city":"Tel Aviv","country":"Israel","lat":32.0055,"lon":34.8854,"region":"Middle East","hasHelipad":true},
  {"id":161,"iata":"KHI","icao":"OPKC","name":"Jinnah Intl","city":"Karachi","country":"Pakistan","lat":24.9065,"lon":67.1608,"region":"Asia","hasHelipad":true},
  {"id":162,"iata":"ADB","icao":"LTBJ","name":"Adnan Menderes Intl","city":"Izmir","country":"Turkey","lat":38.2924,"lon":27.1570,"region":"Middle East","hasHelipad":false},
  {"id":163,"iata":"ESB","icao":"LTAC","name":"Esenboğa Intl","city":"Ankara","country":"Turkey","lat":40.1281,"lon":32.9951,"region":"Middle East","hasHelipad":false},
  {"id":164,"iata":"CJU","icao":"RKPC","name":"Jeju Intl","city":"Jeju","country":"South Korea","lat":33.5113,"lon":126.4929,"region":"Asia","hasHelipad":false},
  {"id":165,"iata":"TPE","icao":"RCTP","name":"Taoyuan Intl","city":"Taipei","country":"Taiwan","lat":25.0777,"lon":121.2328,"region":"Asia","hasHelipad":true},
  {"id":166,"iata":"TSA","icao":"RCSS","name":"Taipei Songshan","city":"Taipei","country":"Taiwan","lat":25.0694,"lon":121.5521,"region":"Asia","hasHelipad":false},
  {"id":167,"iata":"MFM","icao":"VMMC","name":"Macau Intl","city":"Macau","country":"China","lat":22.1496,"lon":113.5920,"region":"Asia","hasHelipad":false},
  {"id":168,"iata":"PNH","icao":"VDPP","name":"Phnom Penh Intl","city":"Phnom Penh","country":"Cambodia","lat":11.5466,"lon":104.8440,"region":"Asia","hasHelipad":false},
  {"id":169,"iata":"VTE","icao":"VLVT","name":"Wattay Intl","city":"Vientiane","country":"Laos","lat":17.9883,"lon":102.5630,"region":"Asia","hasHelipad":false},
  {"id":170,"iata":"DAD","icao":"VVDN","name":"Da Nang Intl","city":"Da Nang","country":"Vietnam","lat":16.0439,"lon":108.1992,"region":"Asia","hasHelipad":false},
  {"id":171,"iata":"YYZ","icao":"CYYZ","name":"Toronto Pearson Intl","city":"Toronto","country":"Canada","lat":43.6777,"lon":-79.6248,"region":"North America","hasHelipad":true},
  {"id":172,"iata":"YVR","icao":"CYVR","name":"Vancouver Intl","city":"Vancouver","country":"Canada","lat":49.1967,"lon":-123.1815,"region":"North America","hasHelipad":true},
  {"id":173,"iata":"YUL","icao":"CYUL","name":"Montréal-Trudeau Intl","city":"Montréal","country":"Canada","lat":45.4706,"lon":-73.7408,"region":"North America","hasHelipad":true},
  {"id":174,"iata":"YYC","icao":"CYYC","name":"Calgary Intl","city":"Calgary","country":"Canada","lat":51.1215,"lon":-114.0130,"region":"North America","hasHelipad":false},
  {"id":175,"iata":"MEX","icao":"MMMX","name":"Benito Juárez Intl","city":"Mexico City","country":"Mexico","lat":19.4363,"lon":-99.0721,"region":"North America","hasHelipad":true},
  {"id":176,"iata":"GDL","icao":"MMGL","name":"Miguel Hidalgo Intl","city":"Guadalajara","country":"Mexico","lat":20.5218,"lon":-103.3112,"region":"North America","hasHelipad":false},
  {"id":177,"iata":"MTY","icao":"MMMY","name":"General Mariano Escobedo Intl","city":"Monterrey","country":"Mexico","lat":25.7786,"lon":-100.1069,"region":"North America","hasHelipad":false},
  {"id":178,"iata":"BOG","icao":"SKBO","name":"El Dorado Intl","city":"Bogotá","country":"Colombia","lat":4.7016,"lon":-74.1469,"region":"South America","hasHelipad":true},
  {"id":179,"iata":"MED","icao":"SKRG","name":"José María Córdova Intl","city":"Medellín","country":"Colombia","lat":6.1645,"lon":-75.4231,"region":"South America","hasHelipad":false},
  {"id":180,"iata":"CLO","icao":"SKCL","name":"Alfonso Bonilla Aragón Intl","city":"Cali","country":"Colombia","lat":3.5432,"lon":-76.3816,"region":"South America","hasHelipad":false},
  {"id":181,"iata":"LIM","icao":"SPIM","name":"Jorge Chávez Intl","city":"Lima","country":"Peru","lat":-12.0219,"lon":-77.1143,"region":"South America","hasHelipad":true},
  {"id":182,"iata":"SCL","icao":"SCEL","name":"Arturo Merino Benítez Intl","city":"Santiago","country":"Chile","lat":-33.3930,"lon":-70.7858,"region":"South America","hasHelipad":true},
  {"id":183,"iata":"EZE","icao":"SAEZ","name":"Ministro Pistarini Intl","city":"Buenos Aires","country":"Argentina","lat":-34.8222,"lon":-58.5358,"region":"South America","hasHelipad":true},
  {"id":184,"iata":"AEP","icao":"SABE","name":"Jorge Newbery Airfield","city":"Buenos Aires","country":"Argentina","lat":-34.5592,"lon":-58.4156,"region":"South America","hasHelipad":true},
  {"id":185,"iata":"MVD","icao":"SUMU","name":"Carrasco Intl","city":"Montevideo","country":"Uruguay","lat":-34.8384,"lon":-56.0308,"region":"South America","hasHelipad":false},
  {"id":186,"iata":"ASU","icao":"SGAS","name":"Silvio Pettirossi Intl","city":"Asunción","country":"Paraguay","lat":-25.2400,"lon":-57.5198,"region":"South America","hasHelipad":false},
  {"id":187,"iata":"LPB","icao":"SLLP","name":"El Alto Intl","city":"La Paz","country":"Bolivia","lat":-16.5133,"lon":-68.1922,"region":"South America","hasHelipad":false},
  {"id":188,"iata":"UIO","icao":"SEQM","name":"Mariscal Sucre Intl","city":"Quito","country":"Ecuador","lat":-0.1292,"lon":-78.3576,"region":"South America","hasHelipad":false},
  {"id":189,"iata":"GYE","icao":"SEGU","name":"José Joaquín de Olmedo Intl","city":"Guayaquil","country":"Ecuador","lat":-2.1574,"lon":-79.8836,"region":"South America","hasHelipad":false},
  {"id":190,"iata":"CCS","icao":"SVMI","name":"Simón Bolívar Intl","city":"Caracas","country":"Venezuela","lat":10.6012,"lon":-66.9913,"region":"South America","hasHelipad":false},
  {"id":191,"iata":"PTY","icao":"MPTO","name":"Tocumen Intl","city":"Panama City","country":"Panama","lat":9.0714,"lon":-79.3835,"region":"North America","hasHelipad":true},
  {"id":192,"iata":"SJO","icao":"MROC","name":"Juan Santamaría Intl","city":"San José","country":"Costa Rica","lat":9.9939,"lon":-84.2088,"region":"North America","hasHelipad":false},
  {"id":193,"iata":"GUA","icao":"MGGT","name":"La Aurora Intl","city":"Guatemala City","country":"Guatemala","lat":14.5833,"lon":-90.5275,"region":"North America","hasHelipad":false},
  {"id":194,"iata":"SAL","icao":"MSSS","name":"Óscar Arnulfo Romero Intl","city":"San Salvador","country":"El Salvador","lat":13.4409,"lon":-89.0557,"region":"North America","hasHelipad":false},
  {"id":195,"iata":"TGU","icao":"MHTG","name":"Toncontín Intl","city":"Tegucigalpa","country":"Honduras","lat":14.0608,"lon":-87.2172,"region":"North America","hasHelipad":false},
  {"id":196,"iata":"SDQ","icao":"MDSD","name":"Las Américas Intl","city":"Santo Domingo","country":"Dominican Republic","lat":18.4297,"lon":-69.6689,"region":"North America","hasHelipad":false},
  {"id":197,"iata":"SJU","icao":"TJSJ","name":"Luis Muñoz Marín Intl","city":"San Juan","country":"Puerto Rico","lat":18.4394,"lon":-66.0018,"region":"North America","hasHelipad":false},
  {"id":198,"iata":"HAV","icao":"MUHA","name":"José Martí Intl","city":"Havana","country":"Cuba","lat":22.9892,"lon":-82.4091,"region":"North America","hasHelipad":false},
  {"id":199,"iata":"NAS","icao":"MYNN","name":"Lynden Pindling Intl","city":"Nassau","country":"Bahamas","lat":25.0390,"lon":-77.4662,"region":"North America","hasHelipad":false},
  {"id":200,"iata":"MBJ","icao":"MKJS","name":"Sangster Intl","city":"Montego Bay","country":"Jamaica","lat":18.5037,"lon":-77.9134,"region":"North America","hasHelipad":false},
  {"id":201,"iata":"CAI","icao":"HECA","name":"Cairo Intl","city":"Cairo","country":"Egypt","lat":30.1219,"lon":31.4056,"region":"Africa","hasHelipad":true},
  {"id":202,"iata":"ALG","icao":"DAAG","name":"Houari Boumediene","city":"Algiers","country":"Algeria","lat":36.6910,"lon":3.2154,"region":"Africa","hasHelipad":false},
  {"id":203,"iata":"CMN","icao":"GMMN","name":"Mohammed V Intl","city":"Casablanca","country":"Morocco","lat":33.3675,"lon":-7.5900,"region":"Africa","hasHelipad":true},
  {"id":204,"iata":"TUN","icao":"DTTA","name":"Tunis-Carthage","city":"Tunis","country":"Tunisia","lat":36.8510,"lon":10.2272,"region":"Africa","hasHelipad":false},
  {"id":205,"iata":"ACC","icao":"DGAA","name":"Kotoka Intl","city":"Accra","country":"Ghana","lat":5.6052,"lon":-0.1668,"region":"Africa","hasHelipad":false},
  {"id":206,"iata":"LOS","icao":"DNMM","name":"Murtala Muhammed Intl","city":"Lagos","country":"Nigeria","lat":6.5774,"lon":3.3214,"region":"Africa","hasHelipad":true},
  {"id":207,"iata":"ABV","icao":"DNAA","name":"Nnamdi Azikiwe Intl","city":"Abuja","country":"Nigeria","lat":9.0068,"lon":7.2632,"region":"Africa","hasHelipad":false},
  {"id":208,"iata":"NBO","icao":"HKJK","name":"Jomo Kenyatta Intl","city":"Nairobi","country":"Kenya","lat":-1.3192,"lon":36.9275,"region":"Africa","hasHelipad":true},
  {"id":209,"iata":"ADD","icao":"HAAB","name":"Bole Intl","city":"Addis Ababa","country":"Ethiopia","lat":8.9779,"lon":38.7993,"region":"Africa","hasHelipad":true},
  {"id":210,"iata":"DAR","icao":"HTDA","name":"Julius Nyerere Intl","city":"Dar es Salaam","country":"Tanzania","lat":-6.8781,"lon":39.2026,"region":"Africa","hasHelipad":false},
  {"id":211,"iata":"JNB","icao":"FAOR","name":"O.R. Tambo Intl","city":"Johannesburg","country":"South Africa","lat":-26.1392,"lon":28.2460,"region":"Africa","hasHelipad":true},
  {"id":212,"iata":"CPT","icao":"FACT","name":"Cape Town Intl","city":"Cape Town","country":"South Africa","lat":-33.9649,"lon":18.6017,"region":"Africa","hasHelipad":true},
  {"id":213,"iata":"DUR","icao":"FALE","name":"King Shaka Intl","city":"Durban","country":"South Africa","lat":-29.6144,"lon":31.1197,"region":"Africa","hasHelipad":false},
  {"id":214,"iata":"HRE","icao":"FVHA","name":"Robert Gabriel Mugabe Intl","city":"Harare","country":"Zimbabwe","lat":-17.9318,"lon":31.0928,"region":"Africa","hasHelipad":false},
  {"id":215,"iata":"LUN","icao":"FLKK","name":"Kenneth Kaunda Intl","city":"Lusaka","country":"Zambia","lat":-15.3308,"lon":28.4526,"region":"Africa","hasHelipad":false},
  {"id":216,"iata":"LAD","icao":"FNLU","name":"Quatro de Fevereiro","city":"Luanda","country":"Angola","lat":-8.8582,"lon":13.2312,"region":"Africa","hasHelipad":false},
  {"id":217,"iata":"TNR","icao":"FMMI","name":"Ivato Intl","city":"Antananarivo","country":"Madagascar","lat":-18.7969,"lon":47.4788,"region":"Africa","hasHelipad":false},
  {"id":218,"iata":"MRU","icao":"FIMP","name":"Sir Seewoosagur Ramgoolam Intl","city":"Port Louis","country":"Mauritius","lat":-20.4302,"lon":57.6836,"region":"Africa","hasHelipad":false},
  {"id":219,"iata":"SEZ","icao":"FSIA","name":"Seychelles Intl","city":"Mahé","country":"Seychelles","lat":-4.6744,"lon":55.5218,"region":"Africa","hasHelipad":false},
  {"id":220,"iata":"RUN","icao":"FMEE","name":"Roland Garros","city":"Saint-Denis","country":"Réunion","lat":-20.8871,"lon":55.5103,"region":"Africa","hasHelipad":false},
  {"id":221,"iata":"SYD","icao":"YSSY","name":"Kingsford Smith","city":"Sydney","country":"Australia","lat":-33.9399,"lon":151.1753,"region":"Oceania","hasHelipad":true},
  {"id":222,"iata":"MEL","icao":"YMML","name":"Melbourne Airport","city":"Melbourne","country":"Australia","lat":-37.6690,"lon":144.8410,"region":"Oceania","hasHelipad":true},
  {"id":223,"iata":"BNE","icao":"YBBN","name":"Brisbane Airport","city":"Brisbane","country":"Australia","lat":-27.3842,"lon":153.1175,"region":"Oceania","hasHelipad":true},
  {"id":224,"iata":"PER","icao":"YPPH","name":"Perth Airport","city":"Perth","country":"Australia","lat":-31.9403,"lon":115.9672,"region":"Oceania","hasHelipad":true},
  {"id":225,"iata":"ADL","icao":"YPAD","name":"Adelaide Airport","city":"Adelaide","country":"Australia","lat":-34.9458,"lon":138.5308,"region":"Oceania","hasHelipad":false},
  {"id":226,"iata":"AKL","icao":"NZAA","name":"Auckland Airport","city":"Auckland","country":"New Zealand","lat":-37.0082,"lon":174.7917,"region":"Oceania","hasHelipad":true},
  {"id":227,"iata":"CHC","icao":"NZCH","name":"Christchurch Intl","city":"Christchurch","country":"New Zealand","lat":-43.4894,"lon":172.5320,"region":"Oceania","hasHelipad":false},
  {"id":228,"iata":"WLG","icao":"NZWN","name":"Wellington Intl","city":"Wellington","country":"New Zealand","lat":-41.3272,"lon":174.8051,"region":"Oceania","hasHelipad":false},
  {"id":229,"iata":"HBA","icao":"YMHB","name":"Hobart Intl","city":"Hobart","country":"Australia","lat":-42.8361,"lon":147.5103,"region":"Oceania","hasHelipad":false},
  {"id":230,"iata":"DRW","icao":"YPDN","name":"Darwin Intl","city":"Darwin","country":"Australia","lat":-12.4147,"lon":130.8765,"region":"Oceania","hasHelipad":false},
  {"id":231,"iata":"CNS","icao":"YBCS","name":"Cairns Airport","city":"Cairns","country":"Australia","lat":-16.8858,"lon":145.7552,"region":"Oceania","hasHelipad":false},
  {"id":232,"iata":"POM","icao":"AYPY","name":"Port Moresby Jacksons Intl","city":"Port Moresby","country":"Papua New Guinea","lat":-9.4432,"lon":147.2200,"region":"Oceania","hasHelipad":false},
  {"id":233,"iata":"NAN","icao":"NFFN","name":"Nadi Intl","city":"Nadi","country":"Fiji","lat":-17.7554,"lon":177.4430,"region":"Oceania","hasHelipad":false},
  {"id":234,"iata":"APW","icao":"NSFA","name":"Faleolo Intl","city":"Apia","country":"Samoa","lat":-13.8300,"lon":-172.0083,"region":"Oceania","hasHelipad":false},
  {"id":235,"iata":"INU","icao":"ANYN","name":"Nauru Intl","city":"Yaren","country":"Nauru","lat":-0.5478,"lon":166.9189,"region":"Oceania","hasHelipad":false},
  {"id":236,"iata":"GUM","icao":"PGUM","name":"Antonio B. Won Pat Intl","city":"Hagatña","country":"Guam","lat":13.4834,"lon":144.7960,"region":"Oceania","hasHelipad":false},
  {"id":237,"iata":"PPT","icao":"NTAA","name":"Faa'a Intl","city":"Papeete","country":"French Polynesia","lat":-17.5534,"lon":-149.6066,"region":"Oceania","hasHelipad":false},
  {"id":238,"iata":"RAR","icao":"NCRG","name":"Rarotonga Intl","city":"Avarua","country":"Cook Islands","lat":-21.2027,"lon":-159.8058,"region":"Oceania","hasHelipad":false},
  {"id":239,"iata":"HIR","icao":"AGGH","name":"Henderson Intl","city":"Honiara","country":"Solomon Islands","lat":-9.4280,"lon":160.0548,"region":"Oceania","hasHelipad":false},
  {"id":240,"iata":"VLI","icao":"NVVV","name":"Bauerfield Intl","city":"Port Vila","country":"Vanuatu","lat":-17.6993,"lon":168.3200,"region":"Oceania","hasHelipad":false},
  {"id":241,"iata":"SFJ","icao":"BGSF","name":"Kangerlussuaq Airport","city":"Kangerlussuaq","country":"Greenland","lat":67.0122,"lon":-50.6916,"region":"North America","hasHelipad":false},
  {"id":242,"iata":"TAS","icao":"UTTT","name":"Tashkent Intl","city":"Tashkent","country":"Uzbekistan","lat":41.2579,"lon":69.2812,"region":"Asia","hasHelipad":false},
  {"id":243,"iata":"ALA","icao":"UAAA","name":"Almaty Intl","city":"Almaty","country":"Kazakhstan","lat":43.3521,"lon":77.0404,"region":"Asia","hasHelipad":false},
  {"id":244,"iata":"SVX","icao":"USSS","name":"Koltsovo Intl","city":"Yekaterinburg","country":"Russia","lat":56.7431,"lon":60.8027,"region":"Europe","hasHelipad":false},
  {"id":245,"iata":"OVB","icao":"UNNT","name":"Tolmachevo Intl","city":"Novosibirsk","country":"Russia","lat":54.9963,"lon":82.6672,"region":"Asia","hasHelipad":false},
  {"id":246,"iata":"KJA","icao":"UNKL","name":"Yemelyanovo Intl","city":"Krasnoyarsk","country":"Russia","lat":56.1726,"lon":92.4933,"region":"Asia","hasHelipad":false},
  {"id":247,"iata":"IKT","icao":"UIII","name":"Irkutsk Intl","city":"Irkutsk","country":"Russia","lat":52.2680,"lon":104.3890,"region":"Asia","hasHelipad":false},
  {"id":248,"iata":"PKX","icao":"ZBAD","name":"Beijing Daxing Intl","city":"Beijing","country":"China","lat":39.5095,"lon":116.4105,"region":"Asia","hasHelipad":true},
  {"id":249,"iata":"CAN","icao":"ZGGG","name":"Guangzhou Baiyun Intl","city":"Guangzhou","country":"China","lat":23.3924,"lon":113.2988,"region":"Asia","hasHelipad":true},
  {"id":250,"iata":"XIY","icao":"ZLXY","name":"Xi'an Xianyang Intl","city":"Xi'an","country":"China","lat":34.4471,"lon":108.7517,"region":"Asia","hasHelipad":false}
]
