[{"id":1,"iata":"GRU","icao":"SBGR","name":"Aeroporto Internacional de Guarulhos","city":"São Paulo","country":"Brasil","lat":-23.4356,"lon":-46.4731,"region":"South America","hasHelipad":true},{"id":2,"iata":"CGH","icao":"SBSP","name":"Aeroporto de Congonhas","city":"São Paulo","country":"Brasil","lat":-23.6261,"lon":-46.6564,"region":"South America","hasHelipad":false},{"id":3,"iata":"VCP","icao":"SBKP","name":"Aeroporto Internacional de Viracopos","city":"Campinas","country":"Brasil","lat":-23.0074,"lon":-47.1345,"region":"South America","hasHelipad":false},{"id":4,"iata":"GIG","icao":"SBGL","name":"Aeroporto Internacional do Galeão","city":"Rio de Janeiro","country":"Brasil","lat":-22.8099,"lon":-43.2505,"region":"South America","hasHelipad":true},{"id":5,"iata":"SDU","icao":"SBRJ","name":"Aeroporto Santos Dumont","city":"Rio de Janeiro","country":"Brasil","lat":-22.9105,"lon":-43.1631,"region":"South America","hasHelipad":false},{"id":6,"iata":"BSB","icao":"SBBR","name":"Aeroporto Internacional de Brasília","city":"Brasília","country":"Brasil","lat":-15.8711,"lon":-47.9186,"region":"South America","hasHelipad":true},{"id":7,"iata":"CNF","icao":"SBCF","name":"Aeroporto Internacional de Confins","city":"Belo Horizonte","country":"Brasil","lat":-19.6244,"lon":-43.9719,"region":"South America","hasHelipad":true},{"id":8,"iata":"SSA","icao":"SBSV","name":"Aeroporto Internacional de Salvador","city":"Salvador","country":"Brasil","lat":-12.9086,"lon":-38.3225,"region":"South America","hasHelipad":true},{"id":9,"iata":"REC","icao":"SBRF","name":"Aeroporto Internacional do Recife","city":"Recife","country":"Brasil","lat":-8.1265,"lon":-34.923,"region":"South America","hasHelipad":true},{"id":10,"iata":"FOR","icao":"SBFZ","name":"Aeroporto Internacional de Fortaleza","city":"Fortaleza","country":"Brasil","lat":-3.7763,"lon":-38.5326,"region":"South America","hasHelipad":true},{"id":11,"iata":"MAO","icao":"SBEG","name":"Aeroporto Internacional de Manaus","city":"Manaus","country":"Brasil","lat":-3.0386,"lon":-60.0497,"region":"South America","hasHelipad":true},{"id":12,"iata":"BEL","icao":"SBBE","name":"Aeroporto Internacional de Belém","city":"Belém","country":"Brasil","lat":-1.3793,"lon":-48.4763,"region":"South America","hasHelipad":true},{"id":13,"iata":"CWB","icao":"SBCT","name":"Aeroporto Internacional de Curitiba","city":"Curitiba","country":"Brasil","lat":-25.5285,"lon":-49.1758,"region":"South America","hasHelipad":true},{"id":14,"iata":"POA","icao":"SBPA","name":"Aeroporto Internacional de Porto Alegre","city":"Porto Alegre","country":"Brasil","lat":-29.9944,"lon":-51.1714,"region":"South America","hasHelipad":true},{"id":15,"iata":"FLN","icao":"SBFL","name":"Aeroporto Internacional de Florianópolis","city":"Florianópolis","country":"Brasil","lat":-27.6703,"lon":-48.5525,"region":"South America","hasHelipad":false},{"id":16,"iata":"NAT","icao":"SBNT","name":"Aeroporto Internacional de Natal","city":"Natal","country":"Brasil","lat":-5.9114,"lon":-35.2477,"region":"South America","hasHelipad":false},{"id":17,"iata":"MCZ","icao":"SBMO","name":"Aeroporto Internacional de Maceió","city":"Maceió","country":"Brasil","lat":-9.5109,"lon":-35.7917,"region":"South America","hasHelipad":false},{"id":18,"iata":"THE","icao":"SBTE","name":"Aeroporto Internacional de Teresina","city":"Teresina","country":"Brasil","lat":-5.0599,"lon":-42.8235,"region":"South America","hasHelipad":false},{"id":19,"iata":"SLZ","icao":"SBSL","name":"Aeroporto Internacional de São Luís","city":"São Luís","country":"Brasil","lat":-2.5855,"lon":-44.2341,"region":"South America","hasHelipad":false},{"id":20,"iata":"AJU","icao":"SBAR","name":"Aeroporto Internacional de Aracaju","city":"Aracaju","country":"Brasil","lat":-10.984,"lon":-37.0703,"region":"South America","hasHelipad":false},{"id":21,"iata":"VIX","icao":"SBVT","name":"Aeroporto de Vitória","city":"Vitória","country":"Brasil","lat":-20.2581,"lon":-40.2864,"region":"South America","hasHelipad":false},{"id":22,"iata":"CGB","icao":"SBCY","name":"Aeroporto Internacional de Cuiabá","city":"Cuiabá","country":"Brasil","lat":-15.6531,"lon":-56.1167,"region":"South America","hasHelipad":false},{"id":23,"iata":"CGR","icao":"SBCG","name":"Aeroporto Internacional de Campo Grande","city":"Campo Grande","country":"Brasil","lat":-20.4688,"lon":-54.6725,"region":"South America","hasHelipad":false},{"id":24,"iata":"PVH","icao":"SBPV","name":"Aeroporto Internacional de Porto Velho","city":"Porto Velho","country":"Brasil","lat":-8.7093,"lon":-63.9023,"region":"South America","hasHelipad":false},{"id":25,"iata":"RBR","icao":"SBRB","name":"Aeroporto Internacional de Rio Branco","city":"Rio Branco","country":"Brasil","lat":-9.8691,"lon":-67.8981,"region":"South America","hasHelipad":false},{"id":26,"iata":"MCP","icao":"SBMQ","name":"Aeroporto Internacional de Macapá","city":"Macapá","country":"Brasil","lat":0.0507,"lon":-51.0722,"region":"South America","hasHelipad":false},{"id":27,"iata":"BVB","icao":"SBBV","name":"Aeroporto Internacional de Boa Vista","city":"Boa Vista","country":"Brasil","lat":2.8413,"lon":-60.6922,"region":"South America","hasHelipad":false},{"id":28,"iata":"PMW","icao":"SBPJ","name":"Aeroporto de Palmas","city":"Palmas","country":"Brasil","lat":-10.2913,"lon":-48.3566,"region":"South America","hasHelipad":false},{"id":29,"iata":"GYN","icao":"SBGO","name":"Aeroporto de Goiânia","city":"Goiânia","country":"Brasil","lat":-16.632,"lon":-49.2207,"region":"South America","hasHelipad":false},{"id":30,"iata":"IMP","icao":"SBIZ","name":"Aeroporto de Imperatriz","city":"Imperatriz","country":"Brasil","lat":-5.5312,"lon":-47.46,"region":"South America","hasHelipad":false},{"id":31,"iata":"JPA","icao":"SBJP","name":"Aeroporto Internacional de João Pessoa","city":"João Pessoa","country":"Brasil","lat":-7.1459,"lon":-34.9502,"region":"South America","hasHelipad":false},{"id":32,"iata":"STM","icao":"SBSN","name":"Aeroporto de Santarém","city":"Santarém","country":"Brasil","lat":-2.4247,"lon":-54.7858,"region":"South America","hasHelipad":false},{"id":33,"iata":"IOS","icao":"SBIL","name":"Aeroporto de Ilhéus","city":"Ilhéus","country":"Brasil","lat":-14.816,"lon":-39.032,"region":"South America","hasHelipad":false},{"id":34,"iata":"UDI","icao":"SBUL","name":"Aeroporto Internacional de Uberlândia","city":"Uberlândia","country":"Brasil","lat":-18.8836,"lon":-48.2253,"region":"South America","hasHelipad":false},{"id":35,"iata":"RAO","icao":"SBRP","name":"Aeroporto de Ribeirão Preto","city":"Ribeirão Preto","country":"Brasil","lat":-21.1363,"lon":-47.7767,"region":"South America","hasHelipad":false},{"id":36,"iata":"JOI","icao":"SBJV","name":"Aeroporto de Joinville","city":"Joinville","country":"Brasil","lat":-26.2245,"lon":-48.7975,"region":"South America","hasHelipad":false},{"id":37,"iata":"XAP","icao":"SBCH","name":"Aeroporto de Chapecó","city":"Chapecó","country":"Brasil","lat":-27.1342,"lon":-52.6566,"region":"South America","hasHelipad":false},{"id":38,"iata":"LDB","icao":"SBLO","name":"Aeroporto de Londrina","city":"Londrina","country":"Brasil","lat":-23.3336,"lon":-51.1301,"region":"South America","hasHelipad":false},{"id":39,"iata":"IGU","icao":"SBFI","name":"Aeroporto Internacional de Foz do Iguaçu","city":"Foz do Iguaçu","country":"Brasil","lat":-25.5998,"lon":-54.4872,"region":"South America","hasHelipad":false},{"id":40,"iata":"CXJ","icao":"SBCX","name":"Aeroporto de Caxias do Sul","city":"Caxias do Sul","country":"Brasil","lat":-29.1971,"lon":-51.1875,"region":"South America","hasHelipad":false},{"id":41,"iata":"PET","icao":"SBPK","name":"Aeroporto de Pelotas","city":"Pelotas","country":"Brasil","lat":-31.7184,"lon":-52.3277,"region":"South America","hasHelipad":false},{"id":42,"iata":"URG","icao":"SBUG","name":"Aeroporto Internacional de Uruguaiana","city":"Uruguaiana","country":"Brasil","lat":-29.7822,"lon":-57.0382,"region":"South America","hasHelipad":false},{"id":43,"iata":"CFB","icao":"SBCB","name":"Aeroporto de Cabo Frio","city":"Cabo Frio","country":"Brasil","lat":-22.921,"lon":-42.0743,"region":"South America","hasHelipad":false},{"id":44,"iata":"CAW","icao":"SBCP","name":"Aeroporto de Campos dos Goytacazes","city":"Campos","country":"Brasil","lat":-21.6983,"lon":-41.3017,"region":"South America","hasHelipad":false},{"id":45,"iata":"PPB","icao":"SDPP","name":"Aeroporto de Presidente Prudente","city":"Presidente Prudente","country":"Brasil","lat":-22.175,"lon":-51.4289,"region":"South America","hasHelipad":false},{"id":46,"iata":"AUX","icao":"SWGN","name":"Aeroporto de Araguaína","city":"Araguaína","country":"Brasil","lat":-7.2278,"lon":-48.2405,"region":"South America","hasHelipad":false},{"id":47,"iata":"OPS","icao":"SWSI","name":"Aeroporto de Sinop","city":"Sinop","country":"Brasil","lat":-11.885,"lon":-55.5862,"region":"South America","hasHelipad":false},{"id":48,"iata":"TFF","icao":"SBTF","name":"Aeroporto de Tefé","city":"Tefé","country":"Brasil","lat":-3.3829,"lon":-64.7242,"region":"South America","hasHelipad":false},{"id":49,"iata":"PIN","icao":"SWPI","name":"Aeroporto de Parintins","city":"Parintins","country":"Brasil","lat":-2.673,"lon":-56.7774,"region":"South America","hasHelipad":false},{"id":50,"iata":"MNX","icao":"SBMY","name":"Aeroporto de Manicoré","city":"Manicoré","country":"Brasil","lat":-5.8138,"lon":-61.2783,"region":"South America","hasHelipad":false},{"id":51,"iata":"EZE","icao":"SAEZ","name":"Aeropuerto Internacional Ministro Pistarini","city":"Buenos Aires","country":"Argentina","lat":-34.8222,"lon":-58.5358,"region":"South America","hasHelipad":true},{"id":52,"iata":"AEP","icao":"SABE","name":"Aeroparque Jorge Newbery","city":"Buenos Aires","country":"Argentina","lat":-34.5592,"lon":-58.4156,"region":"South America","hasHelipad":false},{"id":53,"iata":"COR","icao":"SACO","name":"Aeropuerto Internacional Ambrosio Taravella","city":"Córdoba","country":"Argentina","lat":-31.3236,"lon":-64.208,"region":"South America","hasHelipad":false},{"id":54,"iata":"MDZ","icao":"SAME","name":"Aeropuerto Internacional El Plumerillo","city":"Mendoza","country":"Argentina","lat":-32.8317,"lon":-68.7929,"region":"South America","hasHelipad":false},{"id":55,"iata":"BRC","icao":"SANR","name":"Aeropuerto Internacional Teniente Candelaria","city":"Bariloche","country":"Argentina","lat":-41.1512,"lon":-71.1575,"region":"South America","hasHelipad":false},{"id":56,"iata":"ROS","icao":"SAAR","name":"Aeropuerto Internacional Rosario","city":"Rosario","country":"Argentina","lat":-32.9032,"lon":-60.785,"region":"South America","hasHelipad":false},{"id":57,"iata":"USH","icao":"SAWH","name":"Aeropuerto Internacional Malvinas Argentinas","city":"Ushuaia","country":"Argentina","lat":-54.8433,"lon":-68.2958,"region":"South America","hasHelipad":false},{"id":58,"iata":"SLA","icao":"SASA","name":"Aeropuerto Internacional Martín Miguel de Güemes","city":"Salta","country":"Argentina","lat":-24.856,"lon":-65.4862,"region":"South America","hasHelipad":false},{"id":59,"iata":"TUC","icao":"SANT","name":"Aeropuerto Internacional Benjamín Matienzo","city":"Tucumán","country":"Argentina","lat":-26.8409,"lon":-65.1049,"region":"South America","hasHelipad":false},{"id":60,"iata":"NQN","icao":"SAZN","name":"Aeropuerto Internacional Presidente Perón","city":"Neuquén","country":"Argentina","lat":-38.949,"lon":-68.1557,"region":"South America","hasHelipad":false},{"id":61,"iata":"MDQ","icao":"SAZM","name":"Aeropuerto Internacional Ástor Piazzolla","city":"Mar del Plata","country":"Argentina","lat":-37.9342,"lon":-57.5733,"region":"South America","hasHelipad":false},{"id":62,"iata":"IGR","icao":"SARI","name":"Aeropuerto Internacional Cataratas del Iguazú","city":"Puerto Iguazú","country":"Argentina","lat":-25.7373,"lon":-54.4734,"region":"South America","hasHelipad":false},{"id":63,"iata":"CRD","icao":"SAVC","name":"Aeropuerto Internacional General Mosconi","city":"Comodoro Rivadavia","country":"Argentina","lat":-45.7853,"lon":-67.4656,"region":"South America","hasHelipad":false},{"id":64,"iata":"BHI","icao":"SAWB","name":"Aeropuerto de Bahía Blanca","city":"Bahía Blanca","country":"Argentina","lat":-38.7249,"lon":-62.1693,"region":"South America","hasHelipad":false},{"id":65,"iata":"JUJ","icao":"SASJ","name":"Aeropuerto Internacional Gobernador Guzmán","city":"Jujuy","country":"Argentina","lat":-24.3928,"lon":-65.0978,"region":"South America","hasHelipad":false},{"id":66,"iata":"BOG","icao":"SKBO","name":"Aeropuerto Internacional El Dorado","city":"Bogotá","country":"Colombia","lat":4.7016,"lon":-74.1469,"region":"South America","hasHelipad":true},{"id":67,"iata":"MDE","icao":"SKRG","name":"Aeropuerto Internacional José María Córdova","city":"Medellín","country":"Colombia","lat":6.1645,"lon":-75.4231,"region":"South America","hasHelipad":true},{"id":68,"iata":"CLO","icao":"SKCL","name":"Aeropuerto Internacional Alfonso Bonilla Aragón","city":"Cali","country":"Colombia","lat":3.5432,"lon":-76.3816,"region":"South America","hasHelipad":false},{"id":69,"iata":"CTG","icao":"SKCG","name":"Aeropuerto Internacional Rafael Núñez","city":"Cartagena","country":"Colombia","lat":10.4424,"lon":-75.513,"region":"South America","hasHelipad":false},{"id":70,"iata":"BAQ","icao":"SKBQ","name":"Aeropuerto Internacional Ernesto Cortissoz","city":"Barranquilla","country":"Colombia","lat":10.8896,"lon":-74.7808,"region":"South America","hasHelipad":false},{"id":71,"iata":"SMR","icao":"SKSM","name":"Aeropuerto Internacional Simón Bolívar","city":"Santa Marta","country":"Colombia","lat":11.1196,"lon":-74.2306,"region":"South America","hasHelipad":false},{"id":72,"iata":"BGA","icao":"SKBG","name":"Aeropuerto Internacional Palonegro","city":"Bucaramanga","country":"Colombia","lat":7.1265,"lon":-73.1848,"region":"South America","hasHelipad":false},{"id":73,"iata":"PEI","icao":"SKPE","name":"Aeropuerto Internacional Matecaña","city":"Pereira","country":"Colombia","lat":4.8128,"lon":-75.7395,"region":"South America","hasHelipad":false},{"id":74,"iata":"ADZ","icao":"SKSP","name":"Aeropuerto Internacional Gustavo Rojas Pinilla","city":"San Andrés","country":"Colombia","lat":12.5836,"lon":-81.7112,"region":"South America","hasHelipad":false},{"id":75,"iata":"LET","icao":"SKLT","name":"Aeropuerto Internacional Alfredo Vásquez Cobo","city":"Leticia","country":"Colombia","lat":-4.1935,"lon":-69.9432,"region":"South America","hasHelipad":false},{"id":76,"iata":"SCL","icao":"SCEL","name":"Aeropuerto Internacional Arturo Merino Benítez","city":"Santiago","country":"Chile","lat":-33.393,"lon":-70.7858,"region":"South America","hasHelipad":true},{"id":77,"iata":"ANF","icao":"SCFA","name":"Aeropuerto Internacional Andrés Sabella Gálvez","city":"Antofagasta","country":"Chile","lat":-23.4445,"lon":-70.4451,"region":"South America","hasHelipad":false},{"id":78,"iata":"IQQ","icao":"SCDA","name":"Aeropuerto Internacional Diego Aracena","city":"Iquique","country":"Chile","lat":-20.5352,"lon":-70.1812,"region":"South America","hasHelipad":false},{"id":79,"iata":"ARI","icao":"SCAR","name":"Aeropuerto Internacional Chacalluta","city":"Arica","country":"Chile","lat":-18.3485,"lon":-70.3388,"region":"South America","hasHelipad":false},{"id":80,"iata":"CCP","icao":"SCIE","name":"Aeropuerto Internacional Carriel Sur","city":"Concepción","country":"Chile","lat":-36.7728,"lon":-73.0631,"region":"South America","hasHelipad":false},{"id":81,"iata":"PMC","icao":"SCTE","name":"Aeropuerto Internacional El Tepual","city":"Puerto Montt","country":"Chile","lat":-41.4389,"lon":-73.094,"region":"South America","hasHelipad":false},{"id":82,"iata":"PUQ","icao":"SCCI","name":"Aeropuerto Internacional Carlos Ibáñez del Campo","city":"Punta Arenas","country":"Chile","lat":-53.0026,"lon":-70.8545,"region":"South America","hasHelipad":false},{"id":83,"iata":"LSC","icao":"SCSE","name":"Aeropuerto Internacional La Florida","city":"La Serena","country":"Chile","lat":-29.9162,"lon":-71.1995,"region":"South America","hasHelipad":false},{"id":84,"iata":"ZCO","icao":"SCTC","name":"Aeropuerto Internacional La Araucanía","city":"Temuco","country":"Chile","lat":-38.7659,"lon":-72.6371,"region":"South America","hasHelipad":false},{"id":85,"iata":"IPC","icao":"SCIP","name":"Aeropuerto Internacional Mataveri","city":"Isla de Pascua","country":"Chile","lat":-27.1648,"lon":-109.4219,"region":"South America","hasHelipad":false},{"id":86,"iata":"LIM","icao":"SPJC","name":"Aeropuerto Internacional Jorge Chávez","city":"Lima","country":"Perú","lat":-12.0219,"lon":-77.1143,"region":"South America","hasHelipad":true},{"id":87,"iata":"CUZ","icao":"SPZO","name":"Aeropuerto Internacional Alejandro Velasco Astete","city":"Cusco","country":"Perú","lat":-13.5357,"lon":-71.9388,"region":"South America","hasHelipad":false},{"id":88,"iata":"AQP","icao":"SPQU","name":"Aeropuerto Internacional Rodríguez Ballón","city":"Arequipa","country":"Perú","lat":-16.3411,"lon":-71.583,"region":"South America","hasHelipad":false},{"id":89,"iata":"IQT","icao":"SPQT","name":"Aeropuerto Internacional Francisco Secada Vignetta","city":"Iquitos","country":"Perú","lat":-3.7847,"lon":-73.3088,"region":"South America","hasHelipad":false},{"id":90,"iata":"TRU","icao":"SPRU","name":"Aeropuerto Internacional Carlos Martínez de Pinillos","city":"Trujillo","country":"Perú","lat":-8.0814,"lon":-79.1088,"region":"South America","hasHelipad":false},{"id":91,"iata":"PIU","icao":"STNP","name":"Aeropuerto Internacional Guillermo Concha Iberico","city":"Piura","country":"Perú","lat":-5.2075,"lon":-80.6164,"region":"South America","hasHelipad":false},{"id":92,"iata":"JUL","icao":"SPJL","name":"Aeropuerto Internacional Inca Manco Cápac","city":"Juliaca","country":"Perú","lat":-15.4671,"lon":-70.1582,"region":"South America","hasHelipad":false},{"id":93,"iata":"CIX","icao":"SPHI","name":"Aeropuerto Internacional José Abelardo Quiñones","city":"Chiclayo","country":"Perú","lat":-6.7875,"lon":-79.8281,"region":"South America","hasHelipad":false},{"id":94,"iata":"CCS","icao":"SVMI","name":"Aeropuerto Internacional Simón Bolívar","city":"Caracas","country":"Venezuela","lat":10.6012,"lon":-66.9909,"region":"South America","hasHelipad":true},{"id":95,"iata":"MAR","icao":"SVMC","name":"Aeropuerto Internacional La Chinita","city":"Maracaibo","country":"Venezuela","lat":10.5582,"lon":-71.7279,"region":"South America","hasHelipad":false},{"id":96,"iata":"VLN","icao":"SVVA","name":"Aeropuerto Internacional Arturo Michelena","city":"Valencia","country":"Venezuela","lat":10.1497,"lon":-67.9284,"region":"South America","hasHelipad":false},{"id":97,"iata":"UIO","icao":"SEQM","name":"Aeropuerto Internacional Mariscal Sucre","city":"Quito","country":"Ecuador","lat":-0.1292,"lon":-78.3575,"region":"South America","hasHelipad":true},{"id":98,"iata":"GYE","icao":"SEGU","name":"Aeropuerto Internacional José Joaquín de Olmedo","city":"Guayaquil","country":"Ecuador","lat":-2.1574,"lon":-79.8836,"region":"South America","hasHelipad":false},{"id":99,"iata":"GPS","icao":"SEGS","name":"Aeropuerto Seymour","city":"Islas Galápagos","country":"Ecuador","lat":-0.4538,"lon":-90.2659,"region":"South America","hasHelipad":false},{"id":100,"iata":"ASU","icao":"SGAS","name":"Aeropuerto Internacional Silvio Pettirossi","city":"Asunción","country":"Paraguay","lat":-25.24,"lon":-57.52,"region":"South America","hasHelipad":false},{"id":101,"iata":"MVD","icao":"SUMU","name":"Aeropuerto Internacional de Carrasco","city":"Montevideo","country":"Uruguay","lat":-34.8384,"lon":-56.0308,"region":"South America","hasHelipad":true},{"id":102,"iata":"PDP","icao":"SUPE","name":"Aeropuerto Internacional de Punta del Este","city":"Punta del Este","country":"Uruguay","lat":-34.8551,"lon":-55.0943,"region":"South America","hasHelipad":false},{"id":103,"iata":"LPB","icao":"SLLP","name":"Aeropuerto Internacional El Alto","city":"La Paz","country":"Bolivia","lat":-16.5133,"lon":-68.1922,"region":"South America","hasHelipad":false},{"id":104,"iata":"VVI","icao":"SLVR","name":"Aeropuerto Internacional Viru Viru","city":"Santa Cruz","country":"Bolivia","lat":-17.6448,"lon":-63.1354,"region":"South America","hasHelipad":false},{"id":105,"iata":"CBB","icao":"SLCB","name":"Aeropuerto Internacional Jorge Wilstermann","city":"Cochabamba","country":"Bolivia","lat":-17.4211,"lon":-66.1771,"region":"South America","hasHelipad":false},{"id":106,"iata":"GEO","icao":"SYCJ","name":"Aeropuerto Internacional Cheddi Jagan","city":"Georgetown","country":"Guyana","lat":6.4985,"lon":-58.2541,"region":"South America","hasHelipad":false},{"id":107,"iata":"PBM","icao":"SMJP","name":"Aeropuerto Internacional Johan Adolf Pengel","city":"Paramaribo","country":"Suriname","lat":5.4528,"lon":-55.1878,"region":"South America","hasHelipad":false},{"id":108,"iata":"CAY","icao":"SOCA","name":"Aeropuerto Internacional Félix Éboué","city":"Cayenne","country":"Guiana Francesa","lat":4.8198,"lon":-52.3604,"region":"South America","hasHelipad":false},{"id":109,"iata":"PMV","icao":"SVPM","name":"Aeropuerto Internacional Del Caribe Santiago Mariño","city":"Porlamar","country":"Venezuela","lat":10.9126,"lon":-63.9666,"region":"South America","hasHelipad":false},{"id":110,"iata":"SFN","icao":"SAAV","name":"Aeropuerto Internacional Sauce Viejo","city":"Santa Fe","country":"Argentina","lat":-31.7117,"lon":-60.8117,"region":"South America","hasHelipad":false},{"id":111,"iata":"REL","icao":"SAVT","name":"Aeropuerto Almirante Marcos A. Zar","city":"Trelew","country":"Argentina","lat":-43.2105,"lon":-65.2703,"region":"South America","hasHelipad":false},{"id":112,"iata":"RGA","icao":"SAWE","name":"Aeropuerto Internacional Río Grande","city":"Río Grande","country":"Argentina","lat":-53.7777,"lon":-67.7494,"region":"South America","hasHelipad":false},{"id":113,"iata":"LUQ","icao":"SAOU","name":"Aeropuerto Brigadier Mayor César Raúl Ojeda","city":"San Luis","country":"Argentina","lat":-33.2732,"lon":-66.3563,"region":"South America","hasHelipad":false},{"id":114,"iata":"PMQ","icao":"SAZP","name":"Aeropuerto Comodoro Pedro Zanni","city":"Perito Moreno","country":"Argentina","lat":-46.5379,"lon":-70.9789,"region":"South America","hasHelipad":false},{"id":115,"iata":"CJC","icao":"SCCF","name":"Aeropuerto Internacional El Loa","city":"Calama","country":"Chile","lat":-22.4982,"lon":-68.9036,"region":"South America","hasHelipad":false},{"id":116,"iata":"MHC","icao":"SCPQ","name":"Aeródromo Chiloé","city":"Castro","country":"Chile","lat":-42.4927,"lon":-73.9561,"region":"South America","hasHelipad":false},{"id":117,"iata":"WCA","icao":"SCST","name":"Aeropuerto de Castro","city":"Castro","country":"Chile","lat":-42.4961,"lon":-73.7606,"region":"South America","hasHelipad":false},{"id":118,"iata":"MQH","icao":"SNMU","name":"Aeroporto de Minaçu","city":"Minaçu","country":"Brasil","lat":-13.5491,"lon":-48.1953,"region":"South America","hasHelipad":false},{"id":119,"iata":"JDO","icao":"SBJU","name":"Aeroporto Regional de Juazeiro do Norte","city":"Juazeiro do Norte","country":"Brasil","lat":-7.2189,"lon":-39.2701,"region":"South America","hasHelipad":false},{"id":120,"iata":"PHB","icao":"SBPB","name":"Aeroporto Internacional de Parnaíba","city":"Parnaíba","country":"Brasil","lat":-2.8938,"lon":-41.732,"region":"South America","hasHelipad":false},{"id":121,"iata":"ATL","icao":"KATL","name":"Hartsfield-Jackson Atlanta International Airport","city":"Atlanta","country":"USA","lat":33.6407,"lon":-84.4277,"region":"North America","hasHelipad":true},{"id":122,"iata":"LAX","icao":"KLAX","name":"Los Angeles International Airport","city":"Los Angeles","country":"USA","lat":33.9425,"lon":-118.4081,"region":"North America","hasHelipad":true},{"id":123,"iata":"ORD","icao":"KORD","name":"O'Hare International Airport","city":"Chicago","country":"USA","lat":41.9742,"lon":-87.9073,"region":"North America","hasHelipad":true},{"id":124,"iata":"DFW","icao":"KDFW","name":"Dallas/Fort Worth International Airport","city":"Dallas","country":"USA","lat":32.8968,"lon":-97.038,"region":"North America","hasHelipad":true},{"id":125,"iata":"DEN","icao":"KDEN","name":"Denver International Airport","city":"Denver","country":"USA","lat":39.8561,"lon":-104.6737,"region":"North America","hasHelipad":true},{"id":126,"iata":"JFK","icao":"KJFK","name":"John F. Kennedy International Airport","city":"New York","country":"USA","lat":40.6413,"lon":-73.7781,"region":"North America","hasHelipad":true},{"id":127,"iata":"SFO","icao":"KSFO","name":"San Francisco International Airport","city":"San Francisco","country":"USA","lat":37.6213,"lon":-122.379,"region":"North America","hasHelipad":true},{"id":128,"iata":"SEA","icao":"KSEA","name":"Seattle-Tacoma International Airport","city":"Seattle","country":"USA","lat":47.4502,"lon":-122.3088,"region":"North America","hasHelipad":true},{"id":129,"iata":"LAS","icao":"KLAS","name":"Harry Reid International Airport","city":"Las Vegas","country":"USA","lat":36.084,"lon":-115.1537,"region":"North America","hasHelipad":true},{"id":130,"iata":"MCO","icao":"KMCO","name":"Orlando International Airport","city":"Orlando","country":"USA","lat":28.4294,"lon":-81.3089,"region":"North America","hasHelipad":true},{"id":131,"iata":"EWR","icao":"KEWR","name":"Newark Liberty International Airport","city":"Newark","country":"USA","lat":40.6925,"lon":-74.1687,"region":"North America","hasHelipad":true},{"id":132,"iata":"MIA","icao":"KMIA","name":"Miami International Airport","city":"Miami","country":"USA","lat":25.7959,"lon":-80.287,"region":"North America","hasHelipad":true},{"id":133,"iata":"PHX","icao":"KPHX","name":"Phoenix Sky Harbor International Airport","city":"Phoenix","country":"USA","lat":33.4373,"lon":-112.0078,"region":"North America","hasHelipad":true},{"id":134,"iata":"IAH","icao":"KIAH","name":"George Bush Intercontinental Airport","city":"Houston","country":"USA","lat":29.9902,"lon":-95.3368,"region":"North America","hasHelipad":true},{"id":135,"iata":"BOS","icao":"KBOS","name":"Boston Logan International Airport","city":"Boston","country":"USA","lat":42.3656,"lon":-71.0096,"region":"North America","hasHelipad":true},{"id":136,"iata":"MSP","icao":"KMSP","name":"Minneapolis-Saint Paul International Airport","city":"Minneapolis","country":"USA","lat":44.8848,"lon":-93.2223,"region":"North America","hasHelipad":true},{"id":137,"iata":"DTW","icao":"KDTW","name":"Detroit Metropolitan Airport","city":"Detroit","country":"USA","lat":42.2124,"lon":-83.3534,"region":"North America","hasHelipad":true},{"id":138,"iata":"FLL","icao":"KFLL","name":"Fort Lauderdale-Hollywood International Airport","city":"Fort Lauderdale","country":"USA","lat":26.0726,"lon":-80.1527,"region":"North America","hasHelipad":false},{"id":139,"iata":"CLT","icao":"KCLT","name":"Charlotte Douglas International Airport","city":"Charlotte","country":"USA","lat":35.214,"lon":-80.9431,"region":"North America","hasHelipad":true},{"id":140,"iata":"PHL","icao":"KPHL","name":"Philadelphia International Airport","city":"Philadelphia","country":"USA","lat":39.8744,"lon":-75.2424,"region":"North America","hasHelipad":true},{"id":141,"iata":"BWI","icao":"KBWI","name":"Baltimore/Washington International Airport","city":"Baltimore","country":"USA","lat":39.1754,"lon":-76.6683,"region":"North America","hasHelipad":false},{"id":142,"iata":"IAD","icao":"KIAD","name":"Washington Dulles International Airport","city":"Washington","country":"USA","lat":38.9531,"lon":-77.4565,"region":"North America","hasHelipad":true},{"id":143,"iata":"DCA","icao":"KDCA","name":"Ronald Reagan Washington National Airport","city":"Washington","country":"USA","lat":38.8512,"lon":-77.0402,"region":"North America","hasHelipad":false},{"id":144,"iata":"MDW","icao":"KMDW","name":"Chicago Midway International Airport","city":"Chicago","country":"USA","lat":41.7868,"lon":-87.7522,"region":"North America","hasHelipad":false},{"id":145,"iata":"TPA","icao":"KTPA","name":"Tampa International Airport","city":"Tampa","country":"USA","lat":27.9755,"lon":-82.5332,"region":"North America","hasHelipad":true},{"id":146,"iata":"PDX","icao":"KPDX","name":"Portland International Airport","city":"Portland","country":"USA","lat":45.5898,"lon":-122.5951,"region":"North America","hasHelipad":false},{"id":147,"iata":"SLC","icao":"KSLC","name":"Salt Lake City International Airport","city":"Salt Lake City","country":"USA","lat":40.7884,"lon":-111.9778,"region":"North America","hasHelipad":true},{"id":148,"iata":"SAN","icao":"KSAN","name":"San Diego International Airport","city":"San Diego","country":"USA","lat":32.7338,"lon":-117.1933,"region":"North America","hasHelipad":true},{"id":149,"iata":"HNL","icao":"PHNL","name":"Daniel K. Inouye International Airport","city":"Honolulu","country":"USA","lat":21.3245,"lon":-157.9251,"region":"North America","hasHelipad":true},{"id":150,"iata":"STL","icao":"KSTL","name":"St. Louis Lambert International Airport","city":"St. Louis","country":"USA","lat":38.7487,"lon":-90.37,"region":"North America","hasHelipad":false},{"id":151,"iata":"BNA","icao":"KBNA","name":"Nashville International Airport","city":"Nashville","country":"USA","lat":36.1245,"lon":-86.6782,"region":"North America","hasHelipad":false},{"id":152,"iata":"AUS","icao":"KAUS","name":"Austin-Bergstrom International Airport","city":"Austin","country":"USA","lat":30.1975,"lon":-97.6664,"region":"North America","hasHelipad":false},{"id":153,"iata":"MSY","icao":"KMSY","name":"Louis Armstrong New Orleans International Airport","city":"New Orleans","country":"USA","lat":29.9934,"lon":-90.258,"region":"North America","hasHelipad":false},{"id":154,"iata":"RDU","icao":"KRDU","name":"Raleigh-Durham International Airport","city":"Raleigh","country":"USA","lat":35.8776,"lon":-78.7875,"region":"North America","hasHelipad":false},{"id":155,"iata":"SMF","icao":"KSMF","name":"Sacramento International Airport","city":"Sacramento","country":"USA","lat":38.6954,"lon":-121.5908,"region":"North America","hasHelipad":false},{"id":156,"iata":"SJC","icao":"KSJC","name":"Norman Y. Mineta San José International Airport","city":"San Jose","country":"USA","lat":37.3626,"lon":-121.929,"region":"North America","hasHelipad":false},{"id":157,"iata":"OAK","icao":"KOAK","name":"Oakland International Airport","city":"Oakland","country":"USA","lat":37.7213,"lon":-122.2208,"region":"North America","hasHelipad":false},{"id":158,"iata":"MCI","icao":"KMCI","name":"Kansas City International Airport","city":"Kansas City","country":"USA","lat":39.2976,"lon":-94.7139,"region":"North America","hasHelipad":false},{"id":159,"iata":"CLE","icao":"KCLE","name":"Cleveland Hopkins International Airport","city":"Cleveland","country":"USA","lat":41.4117,"lon":-81.8498,"region":"North America","hasHelipad":false},{"id":160,"iata":"PIT","icao":"KPIT","name":"Pittsburgh International Airport","city":"Pittsburgh","country":"USA","lat":40.4915,"lon":-80.2329,"region":"North America","hasHelipad":false},{"id":161,"iata":"IND","icao":"KIND","name":"Indianapolis International Airport","city":"Indianapolis","country":"USA","lat":39.7173,"lon":-86.2944,"region":"North America","hasHelipad":false},{"id":162,"iata":"CMH","icao":"KCMH","name":"John Glenn Columbus International Airport","city":"Columbus","country":"USA","lat":39.998,"lon":-82.8919,"region":"North America","hasHelipad":false},{"id":163,"iata":"SNA","icao":"KSNA","name":"John Wayne Airport","city":"Santa Ana","country":"USA","lat":33.6757,"lon":-117.8682,"region":"North America","hasHelipad":false},{"id":164,"iata":"MKE","icao":"KMKE","name":"Milwaukee Mitchell International Airport","city":"Milwaukee","country":"USA","lat":42.9472,"lon":-87.8966,"region":"North America","hasHelipad":false},{"id":165,"iata":"OMA","icao":"KOMA","name":"Eppley Airfield","city":"Omaha","country":"USA","lat":41.3032,"lon":-95.8941,"region":"North America","hasHelipad":false},{"id":166,"iata":"TUS","icao":"KTUS","name":"Tucson International Airport","city":"Tucson","country":"USA","lat":32.1161,"lon":-110.941,"region":"North America","hasHelipad":false},{"id":167,"iata":"ELP","icao":"KELP","name":"El Paso International Airport","city":"El Paso","country":"USA","lat":31.8072,"lon":-106.3779,"region":"North America","hasHelipad":false},{"id":168,"iata":"ABQ","icao":"KABQ","name":"Albuquerque International Sunport","city":"Albuquerque","country":"USA","lat":35.0402,"lon":-106.6091,"region":"North America","hasHelipad":false},{"id":169,"iata":"BUF","icao":"KBUF","name":"Buffalo Niagara International Airport","city":"Buffalo","country":"USA","lat":42.9405,"lon":-78.7322,"region":"North America","hasHelipad":false},{"id":170,"iata":"RIC","icao":"KRIC","name":"Richmond International Airport","city":"Richmond","country":"USA","lat":37.5052,"lon":-77.3197,"region":"North America","hasHelipad":false},{"id":171,"iata":"ORF","icao":"KORF","name":"Norfolk International Airport","city":"Norfolk","country":"USA","lat":36.8976,"lon":-76.0122,"region":"North America","hasHelipad":false},{"id":172,"iata":"CHS","icao":"KCHS","name":"Charleston International Airport","city":"Charleston","country":"USA","lat":32.8986,"lon":-80.0405,"region":"North America","hasHelipad":false},{"id":173,"iata":"SAV","icao":"KSAV","name":"Savannah/Hilton Head International Airport","city":"Savannah","country":"USA","lat":32.1276,"lon":-81.2021,"region":"North America","hasHelipad":false},{"id":174,"iata":"JAX","icao":"KJAX","name":"Jacksonville International Airport","city":"Jacksonville","country":"USA","lat":30.4941,"lon":-81.6879,"region":"North America","hasHelipad":false},{"id":175,"iata":"MEM","icao":"KMEM","name":"Memphis International Airport","city":"Memphis","country":"USA","lat":35.0424,"lon":-89.9767,"region":"North America","hasHelipad":false},{"id":176,"iata":"BHM","icao":"KBHM","name":"Birmingham-Shuttlesworth International Airport","city":"Birmingham","country":"USA","lat":33.5629,"lon":-86.7535,"region":"North America","hasHelipad":false},{"id":177,"iata":"GSO","icao":"KGSO","name":"Piedmont Triad International Airport","city":"Greensboro","country":"USA","lat":36.0978,"lon":-79.9373,"region":"North America","hasHelipad":false},{"id":178,"iata":"TUL","icao":"KTUL","name":"Tulsa International Airport","city":"Tulsa","country":"USA","lat":36.1984,"lon":-95.8881,"region":"North America","hasHelipad":false},{"id":179,"iata":"OKC","icao":"KOKC","name":"Will Rogers World Airport","city":"Oklahoma City","country":"USA","lat":35.3931,"lon":-97.6007,"region":"North America","hasHelipad":false},{"id":180,"iata":"DSM","icao":"KDSM","name":"Des Moines International Airport","city":"Des Moines","country":"USA","lat":41.534,"lon":-93.6631,"region":"North America","hasHelipad":false},{"id":181,"iata":"BOI","icao":"KBOI","name":"Boise Airport","city":"Boise","country":"USA","lat":43.5644,"lon":-116.223,"region":"North America","hasHelipad":false},{"id":182,"iata":"RNO","icao":"KRNO","name":"Reno-Tahoe International Airport","city":"Reno","country":"USA","lat":39.4991,"lon":-119.7681,"region":"North America","hasHelipad":false},{"id":183,"iata":"ANC","icao":"PANC","name":"Ted Stevens Anchorage International Airport","city":"Anchorage","country":"USA","lat":61.1744,"lon":-149.9961,"region":"North America","hasHelipad":true},{"id":184,"iata":"FAI","icao":"PAFA","name":"Fairbanks International Airport","city":"Fairbanks","country":"USA","lat":64.8151,"lon":-147.8564,"region":"North America","hasHelipad":false},{"id":185,"iata":"KOA","icao":"PHKO","name":"Ellison Onizuka Kona International Airport","city":"Kona","country":"USA","lat":19.7388,"lon":-156.0456,"region":"North America","hasHelipad":false},{"id":186,"iata":"OGG","icao":"PHOG","name":"Kahului Airport","city":"Maui","country":"USA","lat":20.8986,"lon":-156.4305,"region":"North America","hasHelipad":false},{"id":187,"iata":"SJU","icao":"TJSJ","name":"Luis Muñoz Marín International Airport","city":"San Juan","country":"USA","lat":18.4394,"lon":-66.0018,"region":"North America","hasHelipad":true},{"id":188,"iata":"HAV","icao":"MUHA","name":"Aeropuerto Internacional José Martí","city":"La Habana","country":"Cuba","lat":22.9892,"lon":-82.4091,"region":"North America","hasHelipad":true},{"id":189,"iata":"NAS","icao":"MYNN","name":"Lynden Pindling International Airport","city":"Nassau","country":"Bahamas","lat":25.039,"lon":-77.4662,"region":"North America","hasHelipad":false},{"id":190,"iata":"KIN","icao":"MKJP","name":"Norman Manley International Airport","city":"Kingston","country":"Jamaica","lat":17.9357,"lon":-76.7875,"region":"North America","hasHelipad":false},{"id":191,"iata":"POS","icao":"TTPP","name":"Piarco International Airport","city":"Port of Spain","country":"Trinidad e Tobago","lat":10.5954,"lon":-61.3372,"region":"North America","hasHelipad":false},{"id":192,"iata":"BGI","icao":"TBPB","name":"Grantley Adams International Airport","city":"Bridgetown","country":"Barbados","lat":13.0746,"lon":-59.4925,"region":"North America","hasHelipad":false},{"id":193,"iata":"SDQ","icao":"MDSD","name":"Aeropuerto Internacional Las Américas","city":"Santo Domingo","country":"República Dominicana","lat":18.4297,"lon":-69.6689,"region":"North America","hasHelipad":false},{"id":194,"iata":"PUJ","icao":"MDPC","name":"Aeropuerto Internacional de Punta Cana","city":"Punta Cana","country":"República Dominicana","lat":18.5674,"lon":-68.3634,"region":"North America","hasHelipad":false},{"id":195,"iata":"PAP","icao":"MTPP","name":"Toussaint Louverture International Airport","city":"Porto Príncipe","country":"Haiti","lat":18.5799,"lon":-72.2925,"region":"North America","hasHelipad":false},{"id":196,"iata":"MEX","icao":"MMMX","name":"Aeropuerto Internacional Benito Juárez","city":"Ciudad de México","country":"México","lat":19.4363,"lon":-99.0721,"region":"North America","hasHelipad":true},{"id":197,"iata":"CUN","icao":"MMUN","name":"Aeropuerto Internacional de Cancún","city":"Cancún","country":"México","lat":21.0365,"lon":-86.8771,"region":"North America","hasHelipad":true},{"id":198,"iata":"GDL","icao":"MMGL","name":"Aeropuerto Internacional de Guadalajara","city":"Guadalajara","country":"México","lat":20.5218,"lon":-103.3112,"region":"North America","hasHelipad":true},{"id":199,"iata":"MTY","icao":"MMMY","name":"Aeropuerto Internacional de Monterrey","city":"Monterrey","country":"México","lat":25.7785,"lon":-100.1072,"region":"North America","hasHelipad":true},{"id":200,"iata":"TIJ","icao":"MMTJ","name":"Aeropuerto Internacional de Tijuana","city":"Tijuana","country":"México","lat":32.5411,"lon":-116.9701,"region":"North America","hasHelipad":false},{"id":201,"iata":"PVR","icao":"MMPR","name":"Aeropuerto Internacional Lic. Gustavo Díaz Ordaz","city":"Puerto Vallarta","country":"México","lat":20.6801,"lon":-105.2544,"region":"North America","hasHelipad":false},{"id":202,"iata":"SJD","icao":"MMSD","name":"Aeropuerto Internacional de Los Cabos","city":"Los Cabos","country":"México","lat":23.1518,"lon":-109.7215,"region":"North America","hasHelipad":false},{"id":203,"iata":"MZT","icao":"MMMZ","name":"Aeropuerto Internacional General Rafael Buelna","city":"Mazatlán","country":"México","lat":23.1614,"lon":-106.2665,"region":"North America","hasHelipad":false},{"id":204,"iata":"HMO","icao":"MMHO","name":"Aeropuerto Internacional General Ignacio Pesqueira García","city":"Hermosillo","country":"México","lat":29.0959,"lon":-111.0479,"region":"North America","hasHelipad":false},{"id":205,"iata":"OAX","icao":"MMOX","name":"Aeropuerto Internacional de Oaxaca","city":"Oaxaca","country":"México","lat":17.0,"lon":-96.7266,"region":"North America","hasHelipad":false},{"id":206,"iata":"VER","icao":"MMVR","name":"Aeropuerto Internacional General Heriberto Jara","city":"Veracruz","country":"México","lat":19.1459,"lon":-96.1873,"region":"North America","hasHelipad":false},{"id":207,"iata":"MID","icao":"MMMD","name":"Aeropuerto Internacional Manuel Crescencio Rejón","city":"Mérida","country":"México","lat":20.937,"lon":-89.6577,"region":"North America","hasHelipad":false},{"id":208,"iata":"BJX","icao":"MMLO","name":"Aeropuerto Internacional del Bajío","city":"León","country":"México","lat":20.9935,"lon":-101.4809,"region":"North America","hasHelipad":false},{"id":209,"iata":"CME","icao":"MMCE","name":"Aeropuerto Internacional de Ciudad del Carmen","city":"Ciudad del Carmen","country":"México","lat":18.6536,"lon":-91.799,"region":"North America","hasHelipad":false},{"id":210,"iata":"ZIH","icao":"MMZH","name":"Aeropuerto Internacional Ixtapa-Zihuatanejo","city":"Ixtapa","country":"México","lat":17.6016,"lon":-101.4605,"region":"North America","hasHelipad":false},{"id":211,"iata":"YYZ","icao":"CYYZ","name":"Toronto Pearson International Airport","city":"Toronto","country":"Canada","lat":43.6772,"lon":-79.6306,"region":"North America","hasHelipad":true},{"id":212,"iata":"YVR","icao":"CYVR","name":"Vancouver International Airport","city":"Vancouver","country":"Canada","lat":49.1947,"lon":-123.1792,"region":"North America","hasHelipad":true},{"id":213,"iata":"YUL","icao":"CYUL","name":"Montréal-Trudeau International Airport","city":"Montréal","country":"Canada","lat":45.4706,"lon":-73.7408,"region":"North America","hasHelipad":true},{"id":214,"iata":"YYC","icao":"CYYC","name":"Calgary International Airport","city":"Calgary","country":"Canada","lat":51.1315,"lon":-114.0106,"region":"North America","hasHelipad":true},{"id":215,"iata":"YEG","icao":"CYEG","name":"Edmonton International Airport","city":"Edmonton","country":"Canada","lat":53.3097,"lon":-113.58,"region":"North America","hasHelipad":true},{"id":216,"iata":"YOW","icao":"CYOW","name":"Ottawa Macdonald-Cartier International Airport","city":"Ottawa","country":"Canada","lat":45.3225,"lon":-75.6692,"region":"North America","hasHelipad":false},{"id":217,"iata":"YHZ","icao":"CYHZ","name":"Halifax Stanfield International Airport","city":"Halifax","country":"Canada","lat":44.8808,"lon":-63.5086,"region":"North America","hasHelipad":false},{"id":218,"iata":"YWG","icao":"CYWG","name":"Winnipeg James Armstrong Richardson International Airport","city":"Winnipeg","country":"Canada","lat":49.91,"lon":-97.2399,"region":"North America","hasHelipad":false},{"id":219,"iata":"YQB","icao":"CYQB","name":"Québec City Jean Lesage International Airport","city":"Québec","country":"Canada","lat":46.7911,"lon":-71.3933,"region":"North America","hasHelipad":false},{"id":220,"iata":"YXE","icao":"CYXE","name":"John G. Diefenbaker International Airport","city":"Saskatoon","country":"Canada","lat":52.1708,"lon":-106.6996,"region":"North America","hasHelipad":false},{"id":221,"iata":"YQR","icao":"CYQR","name":"Regina International Airport","city":"Regina","country":"Canada","lat":50.4319,"lon":-104.6659,"region":"North America","hasHelipad":false},{"id":222,"iata":"YYT","icao":"CYYT","name":"St. John's International Airport","city":"St. John's","country":"Canada","lat":47.6186,"lon":-52.7519,"region":"North America","hasHelipad":false},{"id":223,"iata":"YZF","icao":"CYZF","name":"Yellowknife Airport","city":"Yellowknife","country":"Canada","lat":62.4628,"lon":-114.4403,"region":"North America","hasHelipad":false},{"id":224,"iata":"YFB","icao":"CYFB","name":"Iqaluit Airport","city":"Iqaluit","country":"Canada","lat":63.7564,"lon":-68.5558,"region":"North America","hasHelipad":false},{"id":225,"iata":"YXY","icao":"CYXY","name":"Erik Nielsen Whitehorse International Airport","city":"Whitehorse","country":"Canada","lat":60.7096,"lon":-135.0675,"region":"North America","hasHelipad":false},{"id":226,"iata":"YLW","icao":"CYLW","name":"Kelowna International Airport","city":"Kelowna","country":"Canada","lat":49.9561,"lon":-119.3778,"region":"North America","hasHelipad":false},{"id":227,"iata":"YVQ","icao":"CYVQ","name":"Norman Wells Airport","city":"Norman Wells","country":"Canada","lat":65.2816,"lon":-126.7983,"region":"North America","hasHelipad":false},{"id":228,"iata":"YAM","icao":"CYAM","name":"Sault Ste. Marie Airport","city":"Sault Ste. Marie","country":"Canada","lat":46.485,"lon":-84.5094,"region":"North America","hasHelipad":false},{"id":229,"iata":"YQT","icao":"CYQT","name":"Thunder Bay International Airport","city":"Thunder Bay","country":"Canada","lat":48.3719,"lon":-89.3239,"region":"North America","hasHelipad":false},{"id":230,"iata":"GCM","icao":"MWCR","name":"Owen Roberts International Airport","city":"Grand Cayman","country":"Cayman Islands","lat":19.2928,"lon":-81.3577,"region":"North America","hasHelipad":false},{"id":231,"iata":"LHR","icao":"EGLL","name":"Heathrow Airport","city":"Londres","country":"Reino Unido","lat":51.4775,"lon":-0.4614,"region":"Europe","hasHelipad":true},{"id":232,"iata":"LGW","icao":"EGKK","name":"Gatwick Airport","city":"Londres","country":"Reino Unido","lat":51.1481,"lon":-0.1903,"region":"Europe","hasHelipad":true},{"id":233,"iata":"MAN","icao":"EGCC","name":"Manchester Airport","city":"Manchester","country":"Reino Unido","lat":53.3537,"lon":-2.275,"region":"Europe","hasHelipad":true},{"id":234,"iata":"STN","icao":"EGSS","name":"London Stansted Airport","city":"Londres","country":"Reino Unido","lat":51.885,"lon":0.235,"region":"Europe","hasHelipad":false},{"id":235,"iata":"LTN","icao":"EGGW","name":"London Luton Airport","city":"Londres","country":"Reino Unido","lat":51.8747,"lon":-0.3683,"region":"Europe","hasHelipad":false},{"id":236,"iata":"EDI","icao":"EGPH","name":"Edinburgh Airport","city":"Edimburgo","country":"Reino Unido","lat":55.95,"lon":-3.3725,"region":"Europe","hasHelipad":false},{"id":237,"iata":"GLA","icao":"EGPF","name":"Glasgow International Airport","city":"Glasgow","country":"Reino Unido","lat":55.8719,"lon":-4.4331,"region":"Europe","hasHelipad":false},{"id":238,"iata":"BHX","icao":"EGBB","name":"Birmingham Airport","city":"Birmingham","country":"Reino Unido","lat":52.4539,"lon":-1.748,"region":"Europe","hasHelipad":false},{"id":239,"iata":"BRS","icao":"EGGD","name":"Bristol Airport","city":"Bristol","country":"Reino Unido","lat":51.3827,"lon":-2.719,"region":"Europe","hasHelipad":false},{"id":240,"iata":"LCY","icao":"EGLC","name":"London City Airport","city":"Londres","country":"Reino Unido","lat":51.5053,"lon":0.0553,"region":"Europe","hasHelipad":false},{"id":241,"iata":"NCL","icao":"EGNT","name":"Newcastle Airport","city":"Newcastle","country":"Reino Unido","lat":55.0375,"lon":-1.6917,"region":"Europe","hasHelipad":false},{"id":242,"iata":"LBA","icao":"EGNM","name":"Leeds Bradford Airport","city":"Leeds","country":"Reino Unido","lat":53.8659,"lon":-1.6606,"region":"Europe","hasHelipad":false},{"id":243,"iata":"ABZ","icao":"EGPD","name":"Aberdeen International Airport","city":"Aberdeen","country":"Reino Unido","lat":57.2019,"lon":-2.1978,"region":"Europe","hasHelipad":true},{"id":244,"iata":"BFS","icao":"EGAA","name":"Belfast International Airport","city":"Belfast","country":"Reino Unido","lat":54.6575,"lon":-6.2158,"region":"Europe","hasHelipad":false},{"id":245,"iata":"EMA","icao":"EGNX","name":"East Midlands Airport","city":"Nottingham","country":"Reino Unido","lat":52.8311,"lon":-1.3281,"region":"Europe","hasHelipad":false},{"id":246,"iata":"SOU","icao":"EGHI","name":"Southampton Airport","city":"Southampton","country":"Reino Unido","lat":50.9503,"lon":-1.3568,"region":"Europe","hasHelipad":false},{"id":247,"iata":"INV","icao":"EGPE","name":"Inverness Airport","city":"Inverness","country":"Reino Unido","lat":57.5425,"lon":-4.0475,"region":"Europe","hasHelipad":false},{"id":248,"iata":"CWL","icao":"EGFF","name":"Cardiff Airport","city":"Cardiff","country":"Reino Unido","lat":51.3967,"lon":-3.3433,"region":"Europe","hasHelipad":false},{"id":249,"iata":"FRA","icao":"EDDF","name":"Frankfurt Airport","city":"Frankfurt","country":"Alemanha","lat":50.0379,"lon":8.5622,"region":"Europe","hasHelipad":true},{"id":250,"iata":"MUC","icao":"EDDM","name":"Munich Airport","city":"Munique","country":"Alemanha","lat":48.3538,"lon":11.7861,"region":"Europe","hasHelipad":true},{"id":251,"iata":"BER","icao":"EDDB","name":"Berlin Brandenburg Airport","city":"Berlim","country":"Alemanha","lat":52.3667,"lon":13.5033,"region":"Europe","hasHelipad":true},{"id":252,"iata":"DUS","icao":"EDDL","name":"Düsseldorf Airport","city":"Düsseldorf","country":"Alemanha","lat":51.2895,"lon":6.7668,"region":"Europe","hasHelipad":false},{"id":253,"iata":"HAM","icao":"EDDH","name":"Hamburg Airport","city":"Hamburgo","country":"Alemanha","lat":53.6304,"lon":9.9882,"region":"Europe","hasHelipad":false},{"id":254,"iata":"CGN","icao":"EDDK","name":"Cologne Bonn Airport","city":"Colônia","country":"Alemanha","lat":50.8659,"lon":7.1427,"region":"Europe","hasHelipad":false},{"id":255,"iata":"STR","icao":"EDDS","name":"Stuttgart Airport","city":"Stuttgart","country":"Alemanha","lat":48.69,"lon":9.2216,"region":"Europe","hasHelipad":false},{"id":256,"iata":"NUE","icao":"EDDN","name":"Nuremberg Airport","city":"Nuremberga","country":"Alemanha","lat":49.4987,"lon":11.0669,"region":"Europe","hasHelipad":false},{"id":257,"iata":"HAJ","icao":"EDDV","name":"Hannover Airport","city":"Hanôver","country":"Alemanha","lat":52.4611,"lon":9.685,"region":"Europe","hasHelipad":false},{"id":258,"iata":"LEJ","icao":"EDDP","name":"Leipzig/Halle Airport","city":"Leipzig","country":"Alemanha","lat":51.4324,"lon":12.2416,"region":"Europe","hasHelipad":false},{"id":259,"iata":"DRS","icao":"EDDC","name":"Dresden Airport","city":"Dresden","country":"Alemanha","lat":51.1328,"lon":13.7672,"region":"Europe","hasHelipad":false},{"id":260,"iata":"BRE","icao":"EDDW","name":"Bremen Airport","city":"Bremen","country":"Alemanha","lat":53.0475,"lon":8.7867,"region":"Europe","hasHelipad":false},{"id":261,"iata":"ERF","icao":"EDDE","name":"Erfurt-Weimar Airport","city":"Erfurt","country":"Alemanha","lat":50.9798,"lon":10.9581,"region":"Europe","hasHelipad":false},{"id":262,"iata":"PAD","icao":"EDLP","name":"Paderborn Lippstadt Airport","city":"Paderborn","country":"Alemanha","lat":51.6141,"lon":8.6163,"region":"Europe","hasHelipad":false},{"id":263,"iata":"FMO","icao":"EDDG","name":"Münster Osnabrück International Airport","city":"Münster","country":"Alemanha","lat":52.1346,"lon":7.6848,"region":"Europe","hasHelipad":false},{"id":264,"iata":"SCN","icao":"EDDR","name":"Saarbrücken Airport","city":"Saarbrücken","country":"Alemanha","lat":49.2146,"lon":7.1095,"region":"Europe","hasHelipad":false},{"id":265,"iata":"FDH","icao":"EDNY","name":"Friedrichshafen Airport","city":"Friedrichshafen","country":"Alemanha","lat":47.6713,"lon":9.5115,"region":"Europe","hasHelipad":false},{"id":266,"iata":"RLG","icao":"ETNL","name":"Rostock-Laage Airport","city":"Rostock","country":"Alemanha","lat":53.9182,"lon":12.2783,"region":"Europe","hasHelipad":false},{"id":267,"iata":"KSF","icao":"EDVK","name":"Kassel Airport","city":"Kassel","country":"Alemanha","lat":51.4183,"lon":9.3775,"region":"Europe","hasHelipad":false},{"id":268,"iata":"HOQ","icao":"EDQM","name":"Hof-Plauen Airport","city":"Hof","country":"Alemanha","lat":50.2888,"lon":11.8588,"region":"Europe","hasHelipad":false},{"id":269,"iata":"ZQW","icao":"EDRZ","name":"Zweibrücken Airport","city":"Zweibrücken","country":"Alemanha","lat":49.2094,"lon":7.4007,"region":"Europe","hasHelipad":false},{"id":270,"iata":"EIB","icao":"EDGE","name":"Erfurt-Weimar Airport","city":"Eisenach","country":"Alemanha","lat":50.9913,"lon":10.4797,"region":"Europe","hasHelipad":false},{"id":271,"iata":"CDG","icao":"LFPG","name":"Aéroport de Paris-Charles de Gaulle","city":"Paris","country":"França","lat":49.0097,"lon":2.5479,"region":"Europe","hasHelipad":true},{"id":272,"iata":"ORY","icao":"LFPO","name":"Aéroport de Paris-Orly","city":"Paris","country":"França","lat":48.7233,"lon":2.3794,"region":"Europe","hasHelipad":false},{"id":273,"iata":"NCE","icao":"LFMN","name":"Aéroport de Nice Côte d'Azur","city":"Nice","country":"França","lat":43.6584,"lon":7.2159,"region":"Europe","hasHelipad":true},{"id":274,"iata":"LYS","icao":"LFLL","name":"Aéroport de Lyon-Saint Exupéry","city":"Lyon","country":"França","lat":45.7256,"lon":5.0811,"region":"Europe","hasHelipad":false},{"id":275,"iata":"MRS","icao":"LFML","name":"Aéroport de Marseille Provence","city":"Marseille","country":"França","lat":43.4393,"lon":5.2214,"region":"Europe","hasHelipad":false},{"id":276,"iata":"TLS","icao":"LFBO","name":"Aéroport de Toulouse-Blagnac","city":"Toulouse","country":"França","lat":43.6293,"lon":1.3638,"region":"Europe","hasHelipad":false},{"id":277,"iata":"BOD","icao":"LFBD","name":"Aéroport de Bordeaux-Mérignac","city":"Bordeaux","country":"França","lat":44.8283,"lon":-0.7155,"region":"Europe","hasHelipad":false},{"id":278,"iata":"NTE","icao":"LFRS","name":"Aéroport de Nantes Atlantique","city":"Nantes","country":"França","lat":47.1532,"lon":-1.6107,"region":"Europe","hasHelipad":false},{"id":279,"iata":"LIL","icao":"LFQQ","name":"Aéroport de Lille-Lesquin","city":"Lille","country":"França","lat":50.5619,"lon":3.0894,"region":"Europe","hasHelipad":false},{"id":280,"iata":"SXB","icao":"LFST","name":"Aéroport de Strasbourg","city":"Strasbourg","country":"França","lat":48.5383,"lon":7.6283,"region":"Europe","hasHelipad":false},{"id":281,"iata":"RNS","icao":"LFRN","name":"Aéroport de Rennes-Saint-Jacques","city":"Rennes","country":"França","lat":48.0695,"lon":-1.7348,"region":"Europe","hasHelipad":false},{"id":282,"iata":"MPL","icao":"LFMT","name":"Aéroport de Montpellier Méditerranée","city":"Montpellier","country":"França","lat":43.5762,"lon":3.963,"region":"Europe","hasHelipad":false},{"id":283,"iata":"CLY","icao":"LFKC","name":"Aéroport de Calvi-Sainte-Catherine","city":"Calvi","country":"França","lat":42.5244,"lon":8.7929,"region":"Europe","hasHelipad":false},{"id":284,"iata":"FSC","icao":"LFKF","name":"Aéroport de Figari-Sud Corse","city":"Figari","country":"França","lat":41.5006,"lon":9.0978,"region":"Europe","hasHelipad":false},{"id":285,"iata":"AJA","icao":"LFKJ","name":"Aéroport d'Ajaccio Napoléon Bonaparte","city":"Ajaccio","country":"França","lat":41.9236,"lon":8.8029,"region":"Europe","hasHelipad":false},{"id":286,"iata":"PUF","icao":"LFBP","name":"Aéroport de Pau Pyrénées","city":"Pau","country":"França","lat":43.38,"lon":-0.4186,"region":"Europe","hasHelipad":false},{"id":287,"iata":"EGC","icao":"LFBE","name":"Aéroport de Bergerac-Dordogne-Périgord","city":"Bergerac","country":"França","lat":44.8253,"lon":0.5186,"region":"Europe","hasHelipad":false},{"id":288,"iata":"PGF","icao":"LFMP","name":"Aéroport de Perpignan","city":"Perpignan","country":"França","lat":42.7404,"lon":2.8707,"region":"Europe","hasHelipad":false},{"id":289,"iata":"BES","icao":"LFRB","name":"Aéroport de Brest Bretagne","city":"Brest","country":"França","lat":48.4478,"lon":-4.4185,"region":"Europe","hasHelipad":false},{"id":290,"iata":"MAD","icao":"LEMD","name":"Aeropuerto Adolfo Suárez Madrid-Barajas","city":"Madrid","country":"Espanha","lat":40.4719,"lon":-3.5626,"region":"Europe","hasHelipad":true},{"id":291,"iata":"BCN","icao":"LEBL","name":"Aeropuerto de Barcelona-El Prat","city":"Barcelona","country":"Espanha","lat":41.2971,"lon":2.0785,"region":"Europe","hasHelipad":true},{"id":292,"iata":"PMI","icao":"LEPA","name":"Aeropuerto de Palma de Mallorca","city":"Palma de Mallorca","country":"Espanha","lat":39.5517,"lon":2.7388,"region":"Europe","hasHelipad":false},{"id":293,"iata":"AGP","icao":"LEMG","name":"Aeropuerto Internacional de Málaga","city":"Málaga","country":"Espanha","lat":36.6749,"lon":-4.4991,"region":"Europe","hasHelipad":false},{"id":294,"iata":"SVQ","icao":"LEZL","name":"Aeropuerto Internacional de Sevilla","city":"Sevilla","country":"Espanha","lat":37.418,"lon":-5.8931,"region":"Europe","hasHelipad":false},{"id":295,"iata":"VLC","icao":"LEVC","name":"Aeropuerto de Valencia","city":"Valencia","country":"Espanha","lat":39.4893,"lon":-0.4816,"region":"Europe","hasHelipad":false},{"id":296,"iata":"BIO","icao":"LEBB","name":"Aeropuerto de Bilbao","city":"Bilbao","country":"Espanha","lat":43.3011,"lon":-2.9106,"region":"Europe","hasHelipad":false},{"id":297,"iata":"ACE","icao":"GCRR","name":"Aeropuerto de Lanzarote","city":"Lanzarote","country":"Espanha","lat":28.9455,"lon":-13.6052,"region":"Europe","hasHelipad":false},{"id":298,"iata":"TFN","icao":"GCXO","name":"Aeropuerto Tenerife Norte","city":"Tenerife","country":"Espanha","lat":28.4827,"lon":-16.3415,"region":"Europe","hasHelipad":false},{"id":299,"iata":"TFS","icao":"GCTS","name":"Aeropuerto Tenerife Sur","city":"Tenerife","country":"Espanha","lat":28.0445,"lon":-16.5725,"region":"Europe","hasHelipad":false},{"id":300,"iata":"LPA","icao":"GCLP","name":"Aeropuerto de Gran Canaria","city":"Las Palmas","country":"Espanha","lat":27.9319,"lon":-15.3866,"region":"Europe","hasHelipad":false},{"id":301,"iata":"ALC","icao":"LEAL","name":"Aeropuerto de Alicante","city":"Alicante","country":"Espanha","lat":38.2822,"lon":-0.5582,"region":"Europe","hasHelipad":false},{"id":302,"iata":"IBZ","icao":"LEIB","name":"Aeropuerto de Ibiza","city":"Ibiza","country":"Espanha","lat":38.8729,"lon":1.3731,"region":"Europe","hasHelipad":false},{"id":303,"iata":"SDR","icao":"LEXJ","name":"Aeropuerto de Santander","city":"Santander","country":"Espanha","lat":43.4272,"lon":-3.82,"region":"Europe","hasHelipad":false},{"id":304,"iata":"ZAZ","icao":"LEZG","name":"Aeropuerto de Zaragoza","city":"Zaragoza","country":"Espanha","lat":41.6662,"lon":-1.0415,"region":"Europe","hasHelipad":false},{"id":305,"iata":"FCO","icao":"LIRF","name":"Aeroporto di Roma Fiumicino","city":"Roma","country":"Itália","lat":41.7999,"lon":12.2462,"region":"Europe","hasHelipad":true},{"id":306,"iata":"MXP","icao":"LIMC","name":"Aeroporto di Milano Malpensa","city":"Milão","country":"Itália","lat":45.6306,"lon":8.7231,"region":"Europe","hasHelipad":true},{"id":307,"iata":"LIN","icao":"LIML","name":"Aeroporto di Milano Linate","city":"Milão","country":"Itália","lat":45.4454,"lon":9.2767,"region":"Europe","hasHelipad":false},{"id":308,"iata":"VCE","icao":"LIPZ","name":"Aeroporto di Venezia Marco Polo","city":"Veneza","country":"Itália","lat":45.5053,"lon":12.3519,"region":"Europe","hasHelipad":false},{"id":309,"iata":"NAP","icao":"LIRN","name":"Aeroporto di Napoli Capodichino","city":"Nápoles","country":"Itália","lat":40.886,"lon":14.2908,"region":"Europe","hasHelipad":false},{"id":310,"iata":"BLQ","icao":"LIPE","name":"Aeroporto di Bologna Guglielmo Marconi","city":"Bologna","country":"Itália","lat":44.5354,"lon":11.2887,"region":"Europe","hasHelipad":false},{"id":311,"iata":"CTA","icao":"LICC","name":"Aeroporto di Catania-Fontanarossa","city":"Catânia","country":"Itália","lat":37.4668,"lon":15.0664,"region":"Europe","hasHelipad":false},{"id":312,"iata":"PMO","icao":"LICJ","name":"Aeroporto di Palermo Falcone-Borsellino","city":"Palermo","country":"Itália","lat":38.1796,"lon":13.101,"region":"Europe","hasHelipad":false},{"id":313,"iata":"PSA","icao":"LIRP","name":"Aeroporto di Pisa","city":"Pisa","country":"Itália","lat":43.6839,"lon":10.3927,"region":"Europe","hasHelipad":false},{"id":314,"iata":"FLR","icao":"LIRQ","name":"Aeroporto di Firenze","city":"Florença","country":"Itália","lat":43.8099,"lon":11.2051,"region":"Europe","hasHelipad":false},{"id":315,"iata":"TRN","icao":"LIMF","name":"Aeroporto di Torino Caselle","city":"Turim","country":"Itália","lat":45.2008,"lon":7.6496,"region":"Europe","hasHelipad":false},{"id":316,"iata":"GEN","icao":"LIMJ","name":"Aeroporto di Genova","city":"Gênova","country":"Itália","lat":44.4133,"lon":8.8375,"region":"Europe","hasHelipad":false},{"id":317,"iata":"CAG","icao":"LIEE","name":"Aeroporto di Cagliari-Elmas","city":"Cagliari","country":"Itália","lat":39.2515,"lon":9.0543,"region":"Europe","hasHelipad":false},{"id":318,"iata":"BRI","icao":"LIBD","name":"Aeroporto di Bari-Karol Wojtyla","city":"Bari","country":"Itália","lat":41.1389,"lon":16.7606,"region":"Europe","hasHelipad":false},{"id":319,"iata":"VRN","icao":"LIPX","name":"Aeroporto di Verona","city":"Verona","country":"Itália","lat":45.3957,"lon":10.8885,"region":"Europe","hasHelipad":false},{"id":320,"iata":"AMS","icao":"EHAM","name":"Amsterdam Airport Schiphol","city":"Amsterdã","country":"Holanda","lat":52.3086,"lon":4.7639,"region":"Europe","hasHelipad":true},{"id":321,"iata":"BRU","icao":"EBBR","name":"Brussels Airport","city":"Bruxelas","country":"Bélgica","lat":50.9014,"lon":4.4844,"region":"Europe","hasHelipad":true},{"id":322,"iata":"LIS","icao":"LPPT","name":"Aeroporto de Lisboa","city":"Lisboa","country":"Portugal","lat":38.7813,"lon":-9.1359,"region":"Europe","hasHelipad":true},{"id":323,"iata":"OPO","icao":"LPPR","name":"Aeroporto Francisco Sá Carneiro","city":"Porto","country":"Portugal","lat":41.2481,"lon":-8.6814,"region":"Europe","hasHelipad":false},{"id":324,"iata":"FAO","icao":"LPFR","name":"Aeroporto Internacional de Faro","city":"Faro","country":"Portugal","lat":37.0144,"lon":-7.9659,"region":"Europe","hasHelipad":false},{"id":325,"iata":"FNC","icao":"LPMA","name":"Aeroporto Internacional da Madeira","city":"Funchal","country":"Portugal","lat":32.6979,"lon":-16.7745,"region":"Europe","hasHelipad":false},{"id":326,"iata":"PDL","icao":"LPPD","name":"Aeroporto João Paulo II","city":"Ponta Delgada","country":"Portugal","lat":37.7412,"lon":-25.6979,"region":"Europe","hasHelipad":false},{"id":327,"iata":"ZRH","icao":"LSZH","name":"Zürich Airport","city":"Zurique","country":"Suíça","lat":47.4647,"lon":8.5492,"region":"Europe","hasHelipad":true},{"id":328,"iata":"GVA","icao":"LSGG","name":"Geneva Airport","city":"Genebra","country":"Suíça","lat":46.238,"lon":6.1089,"region":"Europe","hasHelipad":true},{"id":329,"iata":"VIE","icao":"LOWW","name":"Vienna International Airport","city":"Viena","country":"Áustria","lat":48.1103,"lon":16.5697,"region":"Europe","hasHelipad":true},{"id":330,"iata":"WAW","icao":"EPWA","name":"Warsaw Chopin Airport","city":"Varsóvia","country":"Polônia","lat":52.1657,"lon":20.9671,"region":"Europe","hasHelipad":true},{"id":331,"iata":"KRK","icao":"EPKK","name":"John Paul II International Airport Kraków","city":"Cracóvia","country":"Polônia","lat":50.0777,"lon":19.7848,"region":"Europe","hasHelipad":false},{"id":332,"iata":"GDN","icao":"EPGD","name":"Gdansk Lech Walesa Airport","city":"Gdansk","country":"Polônia","lat":54.3776,"lon":18.4662,"region":"Europe","hasHelipad":false},{"id":333,"iata":"WRO","icao":"EPWR","name":"Wroclaw Copernicus Airport","city":"Wroclaw","country":"Polônia","lat":51.1027,"lon":16.8858,"region":"Europe","hasHelipad":false},{"id":334,"iata":"POZ","icao":"EPPO","name":"Poznan-Lawica Airport","city":"Poznan","country":"Polônia","lat":52.421,"lon":16.8263,"region":"Europe","hasHelipad":false},{"id":335,"iata":"PRG","icao":"LKPR","name":"Václav Havel Airport Prague","city":"Praga","country":"República Tcheca","lat":50.1008,"lon":14.26,"region":"Europe","hasHelipad":true},{"id":336,"iata":"BRQ","icao":"LKTB","name":"Brno-Turany Airport","city":"Brno","country":"República Tcheca","lat":49.1513,"lon":16.6944,"region":"Europe","hasHelipad":false},{"id":337,"iata":"BUD","icao":"LHBP","name":"Budapest Ferenc Liszt International Airport","city":"Budapeste","country":"Hungria","lat":47.4369,"lon":19.2556,"region":"Europe","hasHelipad":true},{"id":338,"iata":"OTP","icao":"LROP","name":"Henri Coanda International Airport","city":"Bucareste","country":"Romênia","lat":44.5711,"lon":26.085,"region":"Europe","hasHelipad":true},{"id":339,"iata":"CLJ","icao":"LRCL","name":"Cluj-Napoca International Airport","city":"Cluj-Napoca","country":"Romênia","lat":46.7852,"lon":23.6862,"region":"Europe","hasHelipad":false},{"id":340,"iata":"SOF","icao":"LBSF","name":"Sofia Airport","city":"Sofia","country":"Bulgária","lat":42.6952,"lon":23.4114,"region":"Europe","hasHelipad":false},{"id":341,"iata":"ATH","icao":"LGAV","name":"Athens International Airport","city":"Atenas","country":"Grécia","lat":37.9364,"lon":23.9445,"region":"Europe","hasHelipad":true},{"id":342,"iata":"HER","icao":"LGIR","name":"Heraklion Nikos Kazantzakis International Airport","city":"Heraklion","country":"Grécia","lat":35.3397,"lon":25.1803,"region":"Europe","hasHelipad":false},{"id":343,"iata":"RHO","icao":"LGRP","name":"Diagoras International Airport","city":"Rhodes","country":"Grécia","lat":36.4054,"lon":28.0862,"region":"Europe","hasHelipad":false},{"id":344,"iata":"SKG","icao":"LGTS","name":"Thessaloniki Macedonia International Airport","city":"Tessalônica","country":"Grécia","lat":40.5197,"lon":22.9709,"region":"Europe","hasHelipad":false},{"id":345,"iata":"OSL","icao":"ENGM","name":"Oslo Gardermoen Airport","city":"Oslo","country":"Noruega","lat":60.1939,"lon":11.1004,"region":"Europe","hasHelipad":true},{"id":346,"iata":"BGO","icao":"ENBR","name":"Bergen Airport Flesland","city":"Bergen","country":"Noruega","lat":60.2934,"lon":5.2181,"region":"Europe","hasHelipad":false},{"id":347,"iata":"TRD","icao":"ENVA","name":"Trondheim Vaernes Airport","city":"Trondheim","country":"Noruega","lat":63.4578,"lon":10.9239,"region":"Europe","hasHelipad":false},{"id":348,"iata":"SVG","icao":"ENZV","name":"Stavanger Airport Sola","city":"Stavanger","country":"Noruega","lat":58.8768,"lon":5.6378,"region":"Europe","hasHelipad":true},{"id":349,"iata":"ARN","icao":"ESSA","name":"Stockholm Arlanda Airport","city":"Estocolmo","country":"Suécia","lat":59.6519,"lon":17.9186,"region":"Europe","hasHelipad":true},{"id":350,"iata":"GOT","icao":"ESGG","name":"Gothenburg Landvetter Airport","city":"Gotemburgo","country":"Suécia","lat":57.6628,"lon":12.2798,"region":"Europe","hasHelipad":false},{"id":351,"iata":"MMX","icao":"ESMS","name":"Malmö Airport","city":"Malmö","country":"Suécia","lat":55.5363,"lon":13.3762,"region":"Europe","hasHelipad":false},{"id":352,"iata":"CPH","icao":"EKCH","name":"Copenhagen Airport","city":"Copenhague","country":"Dinamarca","lat":55.618,"lon":12.656,"region":"Europe","hasHelipad":true},{"id":353,"iata":"HEL","icao":"EFHK","name":"Helsinki Vantaa Airport","city":"Helsinque","country":"Finlândia","lat":60.3172,"lon":24.9633,"region":"Europe","hasHelipad":true},{"id":354,"iata":"RIX","icao":"EVRA","name":"Riga International Airport","city":"Riga","country":"Letônia","lat":56.9236,"lon":23.9711,"region":"Europe","hasHelipad":false},{"id":355,"iata":"TLL","icao":"EETN","name":"Tallinn Airport","city":"Tallinn","country":"Estônia","lat":59.4133,"lon":24.8328,"region":"Europe","hasHelipad":false},{"id":356,"iata":"VNO","icao":"EYVI","name":"Vilnius International Airport","city":"Vilnius","country":"Lituânia","lat":54.6341,"lon":25.2858,"region":"Europe","hasHelipad":false},{"id":357,"iata":"KIV","icao":"LUKK","name":"Chisinau International Airport","city":"Chisinau","country":"Moldávia","lat":46.9277,"lon":28.931,"region":"Europe","hasHelipad":false},{"id":358,"iata":"IEV","icao":"UKKK","name":"Kyiv Zhuliany International Airport","city":"Kiev","country":"Ucrânia","lat":50.4019,"lon":30.4497,"region":"Europe","hasHelipad":false},{"id":359,"iata":"KBP","icao":"UKBB","name":"Boryspil International Airport","city":"Kiev","country":"Ucrânia","lat":50.345,"lon":30.8947,"region":"Europe","hasHelipad":true},{"id":360,"iata":"ODS","icao":"UKOO","name":"Odessa International Airport","city":"Odessa","country":"Ucrânia","lat":46.4268,"lon":30.6765,"region":"Europe","hasHelipad":false},{"id":361,"iata":"LWO","icao":"UKLL","name":"Lviv Danylo Halytskyi International Airport","city":"Lviv","country":"Ucrânia","lat":49.8125,"lon":23.9561,"region":"Europe","hasHelipad":false},{"id":362,"iata":"SVO","icao":"UUEE","name":"Sheremetyevo International Airport","city":"Moscou","country":"Rússia","lat":55.9726,"lon":37.4146,"region":"Europe","hasHelipad":true},{"id":363,"iata":"DME","icao":"UUDD","name":"Domodedovo International Airport","city":"Moscou","country":"Rússia","lat":55.4088,"lon":37.9063,"region":"Europe","hasHelipad":true},{"id":364,"iata":"VKO","icao":"UUWW","name":"Vnukovo International Airport","city":"Moscou","country":"Rússia","lat":55.5914,"lon":37.2615,"region":"Europe","hasHelipad":false},{"id":365,"iata":"LED","icao":"ULLI","name":"Pulkovo Airport","city":"São Petersburgo","country":"Rússia","lat":59.8003,"lon":30.2625,"region":"Europe","hasHelipad":false},{"id":366,"iata":"AER","icao":"URSS","name":"Sochi International Airport","city":"Sochi","country":"Rússia","lat":43.4499,"lon":39.9566,"region":"Europe","hasHelipad":false},{"id":367,"iata":"KZN","icao":"UWKD","name":"Kazan International Airport","city":"Kazan","country":"Rússia","lat":55.6063,"lon":49.2787,"region":"Europe","hasHelipad":false},{"id":368,"iata":"SVX","icao":"USSS","name":"Koltsovo Airport","city":"Yekaterinburg","country":"Rússia","lat":56.8431,"lon":60.8027,"region":"Europe","hasHelipad":false},{"id":369,"iata":"KEJ","icao":"UNEE","name":"Kemerovo Airport","city":"Kemerovo","country":"Rússia","lat":55.2701,"lon":86.1072,"region":"Europe","hasHelipad":false},{"id":370,"iata":"OVB","icao":"UNNT","name":"Novosibirsk Tolmachevo Airport","city":"Novosibirsk","country":"Rússia","lat":54.9663,"lon":82.6507,"region":"Europe","hasHelipad":false},{"id":371,"iata":"DUB","icao":"EIDW","name":"Dublin Airport","city":"Dublin","country":"Irlanda","lat":53.4213,"lon":-6.27,"region":"Europe","hasHelipad":true},{"id":372,"iata":"SNN","icao":"EINN","name":"Shannon Airport","city":"Shannon","country":"Irlanda","lat":52.702,"lon":-8.9248,"region":"Europe","hasHelipad":false},{"id":373,"iata":"LJU","icao":"LJLJ","name":"Ljubljana Jože Pučnik Airport","city":"Ljubljana","country":"Eslovênia","lat":46.2237,"lon":14.4576,"region":"Europe","hasHelipad":false},{"id":374,"iata":"ZAG","icao":"LDZA","name":"Zagreb Airport","city":"Zagreb","country":"Croácia","lat":45.7429,"lon":16.0688,"region":"Europe","hasHelipad":false},{"id":375,"iata":"SPU","icao":"LDSP","name":"Split Airport","city":"Split","country":"Croácia","lat":43.5389,"lon":16.298,"region":"Europe","hasHelipad":false},{"id":376,"iata":"DBV","icao":"LDDU","name":"Dubrovnik Airport","city":"Dubrovnik","country":"Croácia","lat":42.5614,"lon":18.2682,"region":"Europe","hasHelipad":false},{"id":377,"iata":"TGD","icao":"LYPG","name":"Podgorica Airport","city":"Podgorica","country":"Montenegro","lat":42.3594,"lon":19.2519,"region":"Europe","hasHelipad":false},{"id":378,"iata":"SKP","icao":"LWSK","name":"Skopje International Airport","city":"Skopje","country":"Macedônia do Norte","lat":41.9616,"lon":21.6214,"region":"Europe","hasHelipad":false},{"id":379,"iata":"SAR","icao":"LYSA","name":"Sarajevo International Airport","city":"Sarajevo","country":"Bósnia e Herzegovina","lat":43.8246,"lon":18.3315,"region":"Europe","hasHelipad":false},{"id":380,"iata":"BEG","icao":"LYBE","name":"Belgrade Nikola Tesla Airport","city":"Belgrado","country":"Sérvia","lat":44.8184,"lon":20.3091,"region":"Europe","hasHelipad":false},{"id":381,"iata":"INI","icao":"LYNI","name":"Niš Constantine the Great Airport","city":"Niš","country":"Sérvia","lat":43.3373,"lon":21.8538,"region":"Europe","hasHelipad":false},{"id":382,"iata":"TIA","icao":"LATI","name":"Tirana International Airport Mother Teresa","city":"Tirana","country":"Albânia","lat":41.4147,"lon":19.7206,"region":"Europe","hasHelipad":false},{"id":383,"iata":"OHD","icao":"LWOH","name":"Ohrid St. Paul the Apostle Airport","city":"Ohrid","country":"Macedônia do Norte","lat":41.18,"lon":20.7423,"region":"Europe","hasHelipad":false},{"id":384,"iata":"LUX","icao":"ELLX","name":"Luxembourg Airport","city":"Luxemburgo","country":"Luxemburgo","lat":49.6233,"lon":6.2044,"region":"Europe","hasHelipad":false},{"id":385,"iata":"GRO","icao":"LEGE","name":"Girona-Costa Brava Airport","city":"Girona","country":"Espanha","lat":41.901,"lon":2.7605,"region":"Europe","hasHelipad":false},{"id":386,"iata":"VLL","icao":"LEVD","name":"Valladolid Airport","city":"Valladolid","country":"Espanha","lat":41.7061,"lon":-4.8519,"region":"Europe","hasHelipad":false},{"id":387,"iata":"MHQ","icao":"EFMA","name":"Mariehamn Airport","city":"Mariehamn","country":"Finlândia","lat":60.1222,"lon":19.8982,"region":"Europe","hasHelipad":false},{"id":388,"iata":"TMP","icao":"EFTP","name":"Tampere-Pirkkala Airport","city":"Tampere","country":"Finlândia","lat":61.4141,"lon":23.6044,"region":"Europe","hasHelipad":false},{"id":389,"iata":"OUL","icao":"EFOU","name":"Oulu Airport","city":"Oulu","country":"Finlândia","lat":64.9301,"lon":25.3546,"region":"Europe","hasHelipad":false},{"id":390,"iata":"KTT","icao":"EFKT","name":"Kittilä Airport","city":"Kittilä","country":"Finlândia","lat":67.701,"lon":24.8468,"region":"Europe","hasHelipad":false},{"id":391,"iata":"RVN","icao":"EFRO","name":"Rovaniemi Airport","city":"Rovaniemi","country":"Finlândia","lat":66.5648,"lon":25.8304,"region":"Europe","hasHelipad":false},{"id":392,"iata":"LEI","icao":"LEAM","name":"Almería Airport","city":"Almería","country":"Espanha","lat":36.8439,"lon":-2.3701,"region":"Europe","hasHelipad":false},{"id":393,"iata":"KGS","icao":"LGKO","name":"Kos International Airport","city":"Kos","country":"Grécia","lat":36.7933,"lon":27.0917,"region":"Europe","hasHelipad":false},{"id":394,"iata":"CFU","icao":"LGKR","name":"Corfu International Airport","city":"Corfu","country":"Grécia","lat":39.6019,"lon":19.9117,"region":"Europe","hasHelipad":false},{"id":395,"iata":"CHQ","icao":"LGSA","name":"Chania International Airport","city":"Chania","country":"Grécia","lat":35.5317,"lon":24.1497,"region":"Europe","hasHelipad":false},{"id":396,"iata":"JMK","icao":"LGMK","name":"Mikonos Airport","city":"Miconos","country":"Grécia","lat":37.4351,"lon":25.3481,"region":"Europe","hasHelipad":false},{"id":397,"iata":"JSI","icao":"LGSK","name":"Skiathos Island National Airport","city":"Skiathos","country":"Grécia","lat":39.1771,"lon":23.5037,"region":"Europe","hasHelipad":false},{"id":398,"iata":"JTR","icao":"LGSR","name":"Santorini Airport","city":"Santorini","country":"Grécia","lat":36.3992,"lon":25.4793,"region":"Europe","hasHelipad":false},{"id":399,"iata":"EFL","icao":"LGKF","name":"Cephalonia Airport","city":"Cefalônia","country":"Grécia","lat":38.12,"lon":20.5005,"region":"Europe","hasHelipad":false},{"id":400,"iata":"ZAK","icao":"LGZA","name":"Zakinthos Airport","city":"Zakynthos","country":"Grécia","lat":37.7509,"lon":20.8843,"region":"Europe","hasHelipad":false},{"id":401,"iata":"PEK","icao":"ZBAA","name":"Beijing Capital International Airport","city":"Pequim","country":"China","lat":40.0799,"lon":116.6031,"region":"Asia","hasHelipad":true},{"id":402,"iata":"PKX","icao":"ZBAD","name":"Beijing Daxing International Airport","city":"Pequim","country":"China","lat":39.5098,"lon":116.4105,"region":"Asia","hasHelipad":true},{"id":403,"iata":"PVG","icao":"ZSPD","name":"Shanghai Pudong International Airport","city":"Shanghai","country":"China","lat":31.1434,"lon":121.8052,"region":"Asia","hasHelipad":true},{"id":404,"iata":"SHA","icao":"ZSSS","name":"Shanghai Hongqiao International Airport","city":"Shanghai","country":"China","lat":31.1979,"lon":121.3362,"region":"Asia","hasHelipad":false},{"id":405,"iata":"CAN","icao":"ZGGG","name":"Guangzhou Baiyun International Airport","city":"Guangzhou","country":"China","lat":23.3924,"lon":113.299,"region":"Asia","hasHelipad":true},{"id":406,"iata":"CTU","icao":"ZUUU","name":"Chengdu Tianfu International Airport","city":"Chengdu","country":"China","lat":30.3124,"lon":104.4441,"region":"Asia","hasHelipad":true},{"id":407,"iata":"SZX","icao":"ZGSZ","name":"Shenzhen Bao'an International Airport","city":"Shenzhen","country":"China","lat":22.6393,"lon":113.8107,"region":"Asia","hasHelipad":false},{"id":408,"iata":"XIY","icao":"ZLXY","name":"Xi'an Xianyang International Airport","city":"Xi'an","country":"China","lat":34.4471,"lon":108.7516,"region":"Asia","hasHelipad":false},{"id":409,"iata":"KMG","icao":"ZPPP","name":"Kunming Changshui International Airport","city":"Kunming","country":"China","lat":25.1019,"lon":102.9292,"region":"Asia","hasHelipad":false},{"id":410,"iata":"WUH","icao":"ZHHH","name":"Wuhan Tianhe International Airport","city":"Wuhan","country":"China","lat":30.7838,"lon":114.2081,"region":"Asia","hasHelipad":false},{"id":411,"iata":"HGH","icao":"ZSHC","name":"Hangzhou Xiaoshan International Airport","city":"Hangzhou","country":"China","lat":30.2295,"lon":120.434,"region":"Asia","hasHelipad":false},{"id":412,"iata":"NKG","icao":"ZSNJ","name":"Nanjing Lukou International Airport","city":"Nanjing","country":"China","lat":31.742,"lon":118.862,"region":"Asia","hasHelipad":false},{"id":413,"iata":"TSN","icao":"ZBTJ","name":"Tianjin Binhai International Airport","city":"Tianjin","country":"China","lat":39.1244,"lon":117.346,"region":"Asia","hasHelipad":false},{"id":414,"iata":"XMN","icao":"ZSAM","name":"Xiamen Gaoqi International Airport","city":"Xiamen","country":"China","lat":24.544,"lon":118.1278,"region":"Asia","hasHelipad":false},{"id":415,"iata":"CKG","icao":"ZUCK","name":"Chongqing Jiangbei International Airport","city":"Chongqing","country":"China","lat":29.7192,"lon":106.6419,"region":"Asia","hasHelipad":false},{"id":416,"iata":"DLC","icao":"ZYTL","name":"Dalian Zhoushuizi International Airport","city":"Dalian","country":"China","lat":38.9657,"lon":121.5386,"region":"Asia","hasHelipad":false},{"id":417,"iata":"SHE","icao":"ZYTX","name":"Shenyang Taoxian International Airport","city":"Shenyang","country":"China","lat":41.6398,"lon":123.483,"region":"Asia","hasHelipad":false},{"id":418,"iata":"HAK","icao":"ZJHK","name":"Haikou Meilan International Airport","city":"Haikou","country":"China","lat":19.9349,"lon":110.459,"region":"Asia","hasHelipad":false},{"id":419,"iata":"SYX","icao":"ZJSY","name":"Sanya Phoenix International Airport","city":"Sanya","country":"China","lat":18.3029,"lon":109.4122,"region":"Asia","hasHelipad":false},{"id":420,"iata":"CGO","icao":"ZHCC","name":"Zhengzhou Xinzheng International Airport","city":"Zhengzhou","country":"China","lat":34.5197,"lon":113.8408,"region":"Asia","hasHelipad":false},{"id":421,"iata":"HET","icao":"ZBHH","name":"Hohhot Baita International Airport","city":"Hohhot","country":"China","lat":40.8514,"lon":111.8241,"region":"Asia","hasHelipad":false},{"id":422,"iata":"TAO","icao":"ZSQD","name":"Qingdao Jiaodong International Airport","city":"Qingdao","country":"China","lat":36.9661,"lon":120.3742,"region":"Asia","hasHelipad":false},{"id":423,"iata":"URC","icao":"ZWWW","name":"Urumqi Diwopu International Airport","city":"Urumqi","country":"China","lat":43.9071,"lon":87.4742,"region":"Asia","hasHelipad":false},{"id":424,"iata":"NNG","icao":"ZGNN","name":"Nanning Wuxu International Airport","city":"Nanning","country":"China","lat":22.6083,"lon":108.1722,"region":"Asia","hasHelipad":false},{"id":425,"iata":"FOC","icao":"ZSFZ","name":"Fuzhou Changle International Airport","city":"Fuzhou","country":"China","lat":25.935,"lon":119.663,"region":"Asia","hasHelipad":false},{"id":426,"iata":"HFE","icao":"ZSOF","name":"Hefei Xinqiao International Airport","city":"Hefei","country":"China","lat":31.9899,"lon":116.98,"region":"Asia","hasHelipad":false},{"id":427,"iata":"INC","icao":"ZLIC","name":"Yinchuan Hedong International Airport","city":"Yinchuan","country":"China","lat":38.4822,"lon":106.0093,"region":"Asia","hasHelipad":false},{"id":428,"iata":"NGB","icao":"ZSNB","name":"Ningbo Lishe International Airport","city":"Ningbo","country":"China","lat":29.8267,"lon":121.462,"region":"Asia","hasHelipad":false},{"id":429,"iata":"WNZ","icao":"ZSWZ","name":"Wenzhou Longwan International Airport","city":"Wenzhou","country":"China","lat":27.9122,"lon":120.852,"region":"Asia","hasHelipad":false},{"id":430,"iata":"LHW","icao":"ZLLL","name":"Lanzhou Zhongchuan International Airport","city":"Lanzhou","country":"China","lat":36.5152,"lon":103.6208,"region":"Asia","hasHelipad":false},{"id":431,"iata":"HND","icao":"RJTT","name":"Tokyo Haneda Airport","city":"Tóquio","country":"Japão","lat":35.5533,"lon":139.7811,"region":"Asia","hasHelipad":true},{"id":432,"iata":"NRT","icao":"RJAA","name":"Tokyo Narita International Airport","city":"Tóquio","country":"Japão","lat":35.7647,"lon":140.3864,"region":"Asia","hasHelipad":true},{"id":433,"iata":"KIX","icao":"RJBB","name":"Kansai International Airport","city":"Osaka","country":"Japão","lat":34.4347,"lon":135.244,"region":"Asia","hasHelipad":true},{"id":434,"iata":"ITM","icao":"RJOO","name":"Osaka Itami Airport","city":"Osaka","country":"Japão","lat":34.7855,"lon":135.438,"region":"Asia","hasHelipad":false},{"id":435,"iata":"CTS","icao":"RJCC","name":"New Chitose Airport","city":"Sapporo","country":"Japão","lat":42.7752,"lon":141.6922,"region":"Asia","hasHelipad":false},{"id":436,"iata":"FUK","icao":"RJFF","name":"Fukuoka Airport","city":"Fukuoka","country":"Japão","lat":33.5859,"lon":130.4511,"region":"Asia","hasHelipad":false},{"id":437,"iata":"NGO","icao":"RJGG","name":"Chubu Centrair International Airport","city":"Nagoya","country":"Japão","lat":34.8583,"lon":136.805,"region":"Asia","hasHelipad":false},{"id":438,"iata":"OKA","icao":"ROAH","name":"Naha Airport","city":"Okinawa","country":"Japão","lat":26.1958,"lon":127.646,"region":"Asia","hasHelipad":false},{"id":439,"iata":"HIJ","icao":"RJOA","name":"Hiroshima Airport","city":"Hiroshima","country":"Japão","lat":34.4361,"lon":132.9194,"region":"Asia","hasHelipad":false},{"id":440,"iata":"SDJ","icao":"RJSS","name":"Sendai Airport","city":"Sendai","country":"Japão","lat":38.1397,"lon":140.917,"region":"Asia","hasHelipad":false},{"id":441,"iata":"OIT","icao":"RJFO","name":"Oita Airport","city":"Oita","country":"Japão","lat":33.4794,"lon":131.737,"region":"Asia","hasHelipad":false},{"id":442,"iata":"KMI","icao":"RJFM","name":"Miyazaki Airport","city":"Miyazaki","country":"Japão","lat":31.8772,"lon":131.449,"region":"Asia","hasHelipad":false},{"id":443,"iata":"KMJ","icao":"RJFT","name":"Kumamoto Airport","city":"Kumamoto","country":"Japão","lat":32.8373,"lon":130.855,"region":"Asia","hasHelipad":false},{"id":444,"iata":"KOJ","icao":"RJFK","name":"Kagoshima Airport","city":"Kagoshima","country":"Japão","lat":31.8034,"lon":130.719,"region":"Asia","hasHelipad":false},{"id":445,"iata":"MYJ","icao":"RJOM","name":"Matsuyama Airport","city":"Matsuyama","country":"Japão","lat":33.8272,"lon":132.699,"region":"Asia","hasHelipad":false},{"id":446,"iata":"TAK","icao":"RJOT","name":"Takamatsu Airport","city":"Takamatsu","country":"Japão","lat":34.2143,"lon":134.016,"region":"Asia","hasHelipad":false},{"id":447,"iata":"TKS","icao":"RJOS","name":"Tokushima Awaodori Airport","city":"Tokushima","country":"Japão","lat":34.1308,"lon":134.606,"region":"Asia","hasHelipad":false},{"id":448,"iata":"KCZ","icao":"RJOK","name":"Kochi Ryoma Airport","city":"Kochi","country":"Japão","lat":33.5461,"lon":133.669,"region":"Asia","hasHelipad":false},{"id":449,"iata":"ICN","icao":"RKSI","name":"Incheon International Airport","city":"Seul","country":"Coreia do Sul","lat":37.4691,"lon":126.4505,"region":"Asia","hasHelipad":true},{"id":450,"iata":"GMP","icao":"RKSS","name":"Gimpo International Airport","city":"Seul","country":"Coreia do Sul","lat":37.5583,"lon":126.7906,"region":"Asia","hasHelipad":false},{"id":451,"iata":"PUS","icao":"RKPK","name":"Gimhae International Airport","city":"Busan","country":"Coreia do Sul","lat":35.1795,"lon":128.9382,"region":"Asia","hasHelipad":false},{"id":452,"iata":"CJU","icao":"RKPC","name":"Jeju International Airport","city":"Jeju","country":"Coreia do Sul","lat":33.5113,"lon":126.493,"region":"Asia","hasHelipad":false},{"id":453,"iata":"TAE","icao":"RKTN","name":"Daegu International Airport","city":"Daegu","country":"Coreia do Sul","lat":35.8941,"lon":128.659,"region":"Asia","hasHelipad":false},{"id":454,"iata":"CJJ","icao":"RKTU","name":"Cheongju International Airport","city":"Cheongju","country":"Coreia do Sul","lat":36.7172,"lon":127.4991,"region":"Asia","hasHelipad":false},{"id":455,"iata":"KWJ","icao":"RKJJ","name":"Gwangju Airport","city":"Gwangju","country":"Coreia do Sul","lat":35.1236,"lon":126.809,"region":"Asia","hasHelipad":false},{"id":456,"iata":"WJU","icao":"RKNW","name":"Wonju Airport","city":"Wonju","country":"Coreia do Sul","lat":37.4381,"lon":127.96,"region":"Asia","hasHelipad":false},{"id":457,"iata":"USN","icao":"RKPU","name":"Ulsan Airport","city":"Ulsan","country":"Coreia do Sul","lat":35.5935,"lon":129.352,"region":"Asia","hasHelipad":false},{"id":458,"iata":"YNJ","icao":"ZYYJ","name":"Yanji Chaoyangchuan Airport","city":"Yanji","country":"China","lat":42.8828,"lon":129.451,"region":"Asia","hasHelipad":false},{"id":459,"iata":"DEL","icao":"VIDP","name":"Indira Gandhi International Airport","city":"Nova Délhi","country":"Índia","lat":28.5665,"lon":77.1031,"region":"Asia","hasHelipad":true},{"id":460,"iata":"BOM","icao":"VABB","name":"Chhatrapati Shivaji Maharaj International Airport","city":"Mumbai","country":"Índia","lat":19.0896,"lon":72.8656,"region":"Asia","hasHelipad":true},{"id":461,"iata":"MAA","icao":"VOMM","name":"Chennai International Airport","city":"Chennai","country":"Índia","lat":12.99,"lon":80.1693,"region":"Asia","hasHelipad":true},{"id":462,"iata":"BLR","icao":"VOBL","name":"Kempegowda International Airport","city":"Bengaluru","country":"Índia","lat":13.1986,"lon":77.7066,"region":"Asia","hasHelipad":true},{"id":463,"iata":"HYD","icao":"VOHS","name":"Rajiv Gandhi International Airport","city":"Hyderabad","country":"Índia","lat":17.2313,"lon":78.4298,"region":"Asia","hasHelipad":true},{"id":464,"iata":"CCU","icao":"VECC","name":"Netaji Subhas Chandra Bose International Airport","city":"Kolkata","country":"Índia","lat":22.6549,"lon":88.4467,"region":"Asia","hasHelipad":false},{"id":465,"iata":"COK","icao":"VOCI","name":"Cochin International Airport","city":"Kochi","country":"Índia","lat":10.152,"lon":76.3919,"region":"Asia","hasHelipad":false},{"id":466,"iata":"AMD","icao":"VAAH","name":"Sardar Vallabhbhai Patel International Airport","city":"Ahmedabad","country":"Índia","lat":23.0772,"lon":72.6347,"region":"Asia","hasHelipad":false},{"id":467,"iata":"PNQ","icao":"VAPO","name":"Pune Airport","city":"Pune","country":"Índia","lat":18.5822,"lon":73.9197,"region":"Asia","hasHelipad":false},{"id":468,"iata":"GOI","icao":"VOGO","name":"Goa International Airport","city":"Goa","country":"Índia","lat":15.3808,"lon":73.8314,"region":"Asia","hasHelipad":false},{"id":469,"iata":"JAI","icao":"VIJP","name":"Jaipur International Airport","city":"Jaipur","country":"Índia","lat":26.8242,"lon":75.8122,"region":"Asia","hasHelipad":false},{"id":470,"iata":"LKO","icao":"VILK","name":"Chaudhary Charan Singh International Airport","city":"Lucknow","country":"Índia","lat":26.7606,"lon":80.8893,"region":"Asia","hasHelipad":false},{"id":471,"iata":"PAT","icao":"VEPT","name":"Jay Prakash Narayan International Airport","city":"Patna","country":"Índia","lat":25.5913,"lon":85.0879,"region":"Asia","hasHelipad":false},{"id":472,"iata":"GAU","icao":"VEGT","name":"Lokpriya Gopinath Bordoloi International Airport","city":"Guwahati","country":"Índia","lat":26.1061,"lon":91.5859,"region":"Asia","hasHelipad":false},{"id":473,"iata":"BBI","icao":"VEBS","name":"Biju Patnaik International Airport","city":"Bhubaneswar","country":"Índia","lat":20.2444,"lon":85.8178,"region":"Asia","hasHelipad":false},{"id":474,"iata":"VTZ","icao":"VEVZ","name":"Visakhapatnam Airport","city":"Visakhapatnam","country":"Índia","lat":17.7212,"lon":83.2245,"region":"Asia","hasHelipad":false},{"id":475,"iata":"IXC","icao":"VICG","name":"Chandigarh Airport","city":"Chandigarh","country":"Índia","lat":30.6735,"lon":76.7885,"region":"Asia","hasHelipad":false},{"id":476,"iata":"SIN","icao":"WSSS","name":"Singapore Changi Airport","city":"Singapura","country":"Singapura","lat":1.3644,"lon":103.9915,"region":"Asia","hasHelipad":true},{"id":477,"iata":"KUL","icao":"WMKK","name":"Kuala Lumpur International Airport","city":"Kuala Lumpur","country":"Malásia","lat":2.7456,"lon":101.7099,"region":"Asia","hasHelipad":true},{"id":478,"iata":"BKK","icao":"VTBS","name":"Suvarnabhumi Airport","city":"Bangkok","country":"Tailândia","lat":13.6811,"lon":100.7475,"region":"Asia","hasHelipad":true},{"id":479,"iata":"DMK","icao":"VTBD","name":"Don Mueang International Airport","city":"Bangkok","country":"Tailândia","lat":13.9126,"lon":100.607,"region":"Asia","hasHelipad":false},{"id":480,"iata":"CGK","icao":"WIII","name":"Soekarno-Hatta International Airport","city":"Jacarta","country":"Indonésia","lat":-6.1256,"lon":106.6559,"region":"Asia","hasHelipad":true},{"id":481,"iata":"DPS","icao":"WADD","name":"Ngurah Rai International Airport","city":"Denpasar","country":"Indonésia","lat":-8.7482,"lon":115.167,"region":"Asia","hasHelipad":false},{"id":482,"iata":"SUB","icao":"WARR","name":"Juanda International Airport","city":"Surabaya","country":"Indonésia","lat":-7.3798,"lon":112.787,"region":"Asia","hasHelipad":false},{"id":483,"iata":"UPG","icao":"WAAA","name":"Sultan Hasanuddin International Airport","city":"Makassar","country":"Indonésia","lat":-5.0616,"lon":119.554,"region":"Asia","hasHelipad":false},{"id":484,"iata":"MDC","icao":"WAMM","name":"Sam Ratulangi International Airport","city":"Manado","country":"Indonésia","lat":1.5493,"lon":124.926,"region":"Asia","hasHelipad":false},{"id":485,"iata":"MNL","icao":"RPLL","name":"Ninoy Aquino International Airport","city":"Manila","country":"Filipinas","lat":14.5086,"lon":121.0197,"region":"Asia","hasHelipad":true},{"id":486,"iata":"CEB","icao":"RPVM","name":"Mactan-Cebu International Airport","city":"Cebu","country":"Filipinas","lat":10.3075,"lon":123.9785,"region":"Asia","hasHelipad":false},{"id":487,"iata":"DVO","icao":"RPMD","name":"Francisco Bangoy International Airport","city":"Davao","country":"Filipinas","lat":7.1255,"lon":125.646,"region":"Asia","hasHelipad":false},{"id":488,"iata":"SGN","icao":"VVTS","name":"Tan Son Nhat International Airport","city":"Ho Chi Minh","country":"Vietnã","lat":10.8188,"lon":106.652,"region":"Asia","hasHelipad":true},{"id":489,"iata":"HAN","icao":"VVNB","name":"Noi Bai International Airport","city":"Hanói","country":"Vietnã","lat":21.2212,"lon":105.8072,"region":"Asia","hasHelipad":true},{"id":490,"iata":"DAD","icao":"VVDN","name":"Da Nang International Airport","city":"Da Nang","country":"Vietnã","lat":16.0439,"lon":108.199,"region":"Asia","hasHelipad":false},{"id":491,"iata":"PNH","icao":"VDPP","name":"Phnom Penh International Airport","city":"Phnom Penh","country":"Camboja","lat":11.5466,"lon":104.844,"region":"Asia","hasHelipad":false},{"id":492,"iata":"REP","icao":"VDSR","name":"Siem Reap International Airport","city":"Siem Reap","country":"Camboja","lat":13.4107,"lon":103.813,"region":"Asia","hasHelipad":false},{"id":493,"iata":"VTE","icao":"VLVT","name":"Wattay International Airport","city":"Vientiane","country":"Laos","lat":17.9883,"lon":102.563,"region":"Asia","hasHelipad":false},{"id":494,"iata":"RGN","icao":"VYYY","name":"Yangon International Airport","city":"Yangon","country":"Myanmar","lat":16.9073,"lon":96.1332,"region":"Asia","hasHelipad":false},{"id":495,"iata":"DAC","icao":"VGZR","name":"Hazrat Shahjalal International Airport","city":"Daca","country":"Bangladesh","lat":23.8433,"lon":90.3978,"region":"Asia","hasHelipad":true},{"id":496,"iata":"CMB","icao":"VCBI","name":"Bandaranaike International Airport","city":"Colombo","country":"Sri Lanka","lat":7.1808,"lon":79.8841,"region":"Asia","hasHelipad":false},{"id":497,"iata":"KTM","icao":"VNKT","name":"Tribhuvan International Airport","city":"Katmandu","country":"Nepal","lat":27.6966,"lon":85.3591,"region":"Asia","hasHelipad":false},{"id":498,"iata":"PBH","icao":"VQPR","name":"Paro Airport","city":"Paro","country":"Butão","lat":27.4032,"lon":89.4246,"region":"Asia","hasHelipad":false},{"id":499,"iata":"TAS","icao":"UTTT","name":"Tashkent International Airport","city":"Tashkent","country":"Uzbequistão","lat":41.2579,"lon":69.2812,"region":"Asia","hasHelipad":false},{"id":500,"iata":"ALA","icao":"UAAA","name":"Almaty International Airport","city":"Almaty","country":"Cazaquistão","lat":43.3521,"lon":77.0404,"region":"Asia","hasHelipad":false},{"id":501,"iata":"DXB","icao":"OMDB","name":"Dubai International Airport","city":"Dubai","country":"Emirados Árabes Unidos","lat":25.2532,"lon":55.3657,"region":"Middle East","hasHelipad":true},{"id":502,"iata":"AUH","icao":"OMAA","name":"Abu Dhabi International Airport","city":"Abu Dhabi","country":"Emirados Árabes Unidos","lat":24.433,"lon":54.6511,"region":"Middle East","hasHelipad":true},{"id":503,"iata":"SHJ","icao":"OMSJ","name":"Sharjah International Airport","city":"Sharjah","country":"Emirados Árabes Unidos","lat":25.3286,"lon":55.5172,"region":"Middle East","hasHelipad":false},{"id":504,"iata":"RKT","icao":"OMRK","name":"Ras Al Khaimah International Airport","city":"Ras Al Khaimah","country":"Emirados Árabes Unidos","lat":25.6135,"lon":55.9388,"region":"Middle East","hasHelipad":false},{"id":505,"iata":"FJR","icao":"OMFJ","name":"Fujairah International Airport","city":"Fujairah","country":"Emirados Árabes Unidos","lat":25.1121,"lon":56.324,"region":"Middle East","hasHelipad":false},{"id":506,"iata":"AAN","icao":"OMAL","name":"Al Ain International Airport","city":"Al Ain","country":"Emirados Árabes Unidos","lat":24.2617,"lon":55.6092,"region":"Middle East","hasHelipad":false},{"id":507,"iata":"MCT","icao":"OOMS","name":"Muscat International Airport","city":"Mascate","country":"Omã","lat":23.5933,"lon":58.2844,"region":"Middle East","hasHelipad":true},{"id":508,"iata":"SLL","icao":"OOSA","name":"Salalah Airport","city":"Salalah","country":"Omã","lat":17.0387,"lon":54.0913,"region":"Middle East","hasHelipad":false},{"id":509,"iata":"RUH","icao":"OERK","name":"King Khalid International Airport","city":"Riade","country":"Arábia Saudita","lat":24.9576,"lon":46.6988,"region":"Middle East","hasHelipad":true},{"id":510,"iata":"JED","icao":"OEJN","name":"King Abdulaziz International Airport","city":"Jeddah","country":"Arábia Saudita","lat":21.6796,"lon":39.1565,"region":"Middle East","hasHelipad":true},{"id":511,"iata":"DMM","icao":"OEDF","name":"King Fahd International Airport","city":"Dammam","country":"Arábia Saudita","lat":26.4712,"lon":49.7979,"region":"Middle East","hasHelipad":true},{"id":512,"iata":"MED","icao":"OEMA","name":"Prince Mohammad Bin Abdulaziz Airport","city":"Medina","country":"Arábia Saudita","lat":24.5534,"lon":39.7051,"region":"Middle East","hasHelipad":false},{"id":513,"iata":"TIF","icao":"OETF","name":"Ta'if Regional Airport","city":"Ta'if","country":"Arábia Saudita","lat":21.4834,"lon":40.5443,"region":"Middle East","hasHelipad":false},{"id":514,"iata":"AHB","icao":"OEAB","name":"Abha Regional Airport","city":"Abha","country":"Arábia Saudita","lat":18.2404,"lon":42.6566,"region":"Middle East","hasHelipad":false},{"id":515,"iata":"GIZ","icao":"OEGN","name":"Jizan Regional Airport","city":"Jizan","country":"Arábia Saudita","lat":16.9011,"lon":42.5858,"region":"Middle East","hasHelipad":false},{"id":516,"iata":"TUU","icao":"OETU","name":"Tabuk Regional Airport","city":"Tabuk","country":"Arábia Saudita","lat":28.3654,"lon":36.6189,"region":"Middle East","hasHelipad":false},{"id":517,"iata":"IST","icao":"LTFM","name":"Istanbul Airport","city":"Istambul","country":"Turquia","lat":41.2753,"lon":28.7519,"region":"Middle East","hasHelipad":true},{"id":518,"iata":"SAW","icao":"LTFJ","name":"Istanbul Sabiha Gökçen Airport","city":"Istambul","country":"Turquia","lat":40.8986,"lon":29.3092,"region":"Middle East","hasHelipad":false},{"id":519,"iata":"ADB","icao":"LTBJ","name":"Izmir Adnan Menderes Airport","city":"Izmir","country":"Turquia","lat":38.2924,"lon":27.157,"region":"Middle East","hasHelipad":false},{"id":520,"iata":"ESB","icao":"LTAC","name":"Ankara Esenboğa Airport","city":"Ancara","country":"Turquia","lat":40.1281,"lon":32.9951,"region":"Middle East","hasHelipad":false},{"id":521,"iata":"AYT","icao":"LTAI","name":"Antalya Airport","city":"Antalya","country":"Turquia","lat":36.8987,"lon":30.8005,"region":"Middle East","hasHelipad":false},{"id":522,"iata":"TZX","icao":"LTCG","name":"Trabzon Airport","city":"Trabzon","country":"Turquia","lat":40.995,"lon":39.7897,"region":"Middle East","hasHelipad":false},{"id":523,"iata":"GZT","icao":"LTAJ","name":"Gaziantep Oğuzeli Airport","city":"Gaziantep","country":"Turquia","lat":36.9473,"lon":37.4787,"region":"Middle East","hasHelipad":false},{"id":524,"iata":"DIY","icao":"LTAD","name":"Diyarbakir Airport","city":"Diyarbakir","country":"Turquia","lat":37.8939,"lon":40.201,"region":"Middle East","hasHelipad":false},{"id":525,"iata":"BAH","icao":"OBBI","name":"Bahrain International Airport","city":"Manama","country":"Bahrein","lat":26.2708,"lon":50.6336,"region":"Middle East","hasHelipad":true},{"id":526,"iata":"DOH","icao":"OTHH","name":"Hamad International Airport","city":"Doha","country":"Qatar","lat":25.2731,"lon":51.6082,"region":"Middle East","hasHelipad":true},{"id":527,"iata":"KWI","icao":"OKBK","name":"Kuwait International Airport","city":"Cidade do Kuwait","country":"Kuwait","lat":29.2266,"lon":47.9689,"region":"Middle East","hasHelipad":true},{"id":528,"iata":"AMM","icao":"OJAI","name":"Queen Alia International Airport","city":"Amã","country":"Jordânia","lat":31.7226,"lon":35.9932,"region":"Middle East","hasHelipad":false},{"id":529,"iata":"BGW","icao":"ORBI","name":"Baghdad International Airport","city":"Bagdá","country":"Iraque","lat":33.2626,"lon":44.2346,"region":"Middle East","hasHelipad":true},{"id":530,"iata":"TLV","icao":"LLBG","name":"Ben Gurion International Airport","city":"Tel Aviv","country":"Israel","lat":32.0114,"lon":34.8867,"region":"Middle East","hasHelipad":true},{"id":531,"iata":"BEY","icao":"OLBA","name":"Rafic Hariri International Airport","city":"Beirute","country":"Líbano","lat":33.8209,"lon":35.4884,"region":"Middle East","hasHelipad":false},{"id":532,"iata":"DAM","icao":"OSDI","name":"Damascus International Airport","city":"Damasco","country":"Síria","lat":33.4115,"lon":36.5156,"region":"Middle East","hasHelipad":false},{"id":533,"iata":"IKA","icao":"OIIE","name":"Tehran Imam Khomeini International Airport","city":"Teerã","country":"Irã","lat":35.4161,"lon":51.1522,"region":"Middle East","hasHelipad":true},{"id":534,"iata":"MHD","icao":"OIMM","name":"Mashhad International Airport","city":"Mashhad","country":"Irã","lat":36.2352,"lon":59.64,"region":"Middle East","hasHelipad":false},{"id":535,"iata":"SYZ","icao":"OISS","name":"Shiraz International Airport","city":"Shiraz","country":"Irã","lat":29.5392,"lon":52.5898,"region":"Middle East","hasHelipad":false},{"id":536,"iata":"IFN","icao":"OIFM","name":"Isfahan International Airport","city":"Isfahan","country":"Irã","lat":32.7508,"lon":51.8613,"region":"Middle East","hasHelipad":false},{"id":537,"iata":"TBZ","icao":"OITT","name":"Tabriz International Airport","city":"Tabriz","country":"Irã","lat":38.1339,"lon":46.235,"region":"Middle East","hasHelipad":false},{"id":538,"iata":"ABD","icao":"OIAA","name":"Abadan Airport","city":"Abadan","country":"Irã","lat":30.3711,"lon":48.2283,"region":"Middle East","hasHelipad":false},{"id":539,"iata":"AWZ","icao":"OIAW","name":"Ahvaz Airport","city":"Ahvaz","country":"Irã","lat":31.3374,"lon":48.762,"region":"Middle East","hasHelipad":false},{"id":540,"iata":"KHD","icao":"OICK","name":"Khorramabad Airport","city":"Khorramabad","country":"Irã","lat":33.4354,"lon":48.2825,"region":"Middle East","hasHelipad":false},{"id":541,"iata":"CAI","icao":"HECA","name":"Cairo International Airport","city":"Cairo","country":"Egito","lat":30.1219,"lon":31.4056,"region":"Africa","hasHelipad":true},{"id":542,"iata":"HRG","icao":"HEGN","name":"Hurghada International Airport","city":"Hurghada","country":"Egito","lat":27.1783,"lon":33.7994,"region":"Africa","hasHelipad":false},{"id":543,"iata":"SSH","icao":"HESH","name":"Sharm El-Sheikh International Airport","city":"Sharm El-Sheikh","country":"Egito","lat":27.9773,"lon":34.395,"region":"Africa","hasHelipad":false},{"id":544,"iata":"LXR","icao":"HELX","name":"Luxor International Airport","city":"Luxor","country":"Egito","lat":25.671,"lon":32.7066,"region":"Africa","hasHelipad":false},